[
 {
  "kind": "국보",
  "name": "창녕 신라 진흥왕 척경비",
  "lat": 35.5407250695667,
  "lng": 128.50264501968
 },
 {
  "kind": "국보",
  "name": "창녕 술정리 동 삼층석탑",
  "lat": 35.5395963195985,
  "lng": 128.496103617453
 },
 {
  "kind": "보물",
  "name": "창녕 송현동 마애여래좌상",
  "lat": 35.5411109027672,
  "lng": 128.50843412427
 },
 {
  "kind": "보물",
  "name": "창녕 관룡사 약사전",
  "lat": 35.5317797593755,
  "lng": 128.553249212686
 },
 {
  "kind": "보물",
  "name": "창녕 관룡사 대웅전",
  "lat": 35.5319753232157,
  "lng": 128.553456832577
 },
 {
  "kind": "보물",
  "name": "창녕 인양사 조성비",
  "lat": 35.5438318475556,
  "lng": 128.4941031394
 },
 {
  "kind": "보물",
  "name": "창녕 관룡사 용선대 석조여래좌상",
  "lat": 35.5316112941143,
  "lng": 128.549070081582
 },
 {
  "kind": "보물",
  "name": "창녕 석빙고",
  "lat": 35.542571,
  "lng": 128.498441
 },
 {
  "kind": "보물",
  "name": "창녕 관룡사 석조여래좌상",
  "lat": 35.5317851734924,
  "lng": 128.553250606709
 },
 {
  "kind": "보물",
  "name": "창녕 술정리 서 삼층석탑",
  "lat": 35.5404792448441,
  "lng": 128.48973239715
 },
 {
  "kind": "보물",
  "name": "창녕 영산 만년교",
  "lat": 35.4536205904158,
  "lng": 128.529820809186
 },
 {
  "kind": "보물",
  "name": "창녕 영산 석빙고",
  "lat": 35.4569202951955,
  "lng": 128.538270505239
 },
 {
  "kind": "사적",
  "name": "창녕 화왕산성",
  "lat": 35.54535599,
  "lng": 128.535099
 },
 {
  "kind": "사적",
  "name": "창녕 목마산성",
  "lat": 35.54404982,
  "lng": 128.5090423
 },
 {
  "kind": "사적",
  "name": "창녕 비봉리 패총",
  "lat": 35.410624644226,
  "lng": 128.645312460464
 },
 {
  "kind": "사적",
  "name": "창녕 교동과 송현동 고분군",
  "lat": 35.5462473359888,
  "lng": 128.506938395713
 },
 {
  "kind": "사적",
  "name": "창녕 계성 고분군",
  "lat": 35.478879213111,
  "lng": 128.507373559728
 },
 {
  "kind": "천연기념물",
  "name": "창녕 우포늪 천연보호구역",
  "lat": 35.5524,
  "lng": 128.4158
 },
 {
  "kind": "국가민속문화유산",
  "name": "창녕 진양하씨 고택",
  "lat": 35.5404760113102,
  "lng": 128.496084920292
 },
 {
  "kind": "국가민속문화유산",
  "name": "보부상 유품(6)",
  "lat": 35.5413147,
  "lng": 128.5007697
 }
]