[
 {
  "region": "경상북도 상주시",
  "sido": "경북",
  "sigungu": "상주시",
  "theme": "문화유산형",
  "segment": "숨은매력지(문화유산형)",
  "composite": 1.61,
  "hidden_score": 2.55,
  "heritage": 112,
  "axes": {
   "visit": -0.6,
   "attract": 4.2,
   "connect": 1.3
  },
  "lat": 36.439007,
  "lng": 128.138726,
  "spots": [
   {
    "title": "견훤산성",
    "addr": "경상북도 상주시 화북면 장암리",
    "lat": 36.5756268834,
    "lng": 127.8993602813,
    "img": "http://tong.visitkorea.or.kr/cms/resource/63/3031063_image2_1.jpg",
    "cat3": "A02010200"
   },
   {
    "title": "경북 상주 함창·이안·공검면 [슬로시티]",
    "addr": "경상북도 상주시 함창읍 함창중앙로 135",
    "lat": 36.570190974,
    "lng": 128.1794354346,
    "img": "http://tong.visitkorea.or.kr/cms/resource/12/3042612_image2_1.jpg",
    "cat3": "A02010600"
   },
   {
    "title": "낙동강 경천대(경천대 전망대)",
    "addr": "경상북도 상주시 사벌국면 경천로 652",
    "lat": 36.4582827307,
    "lng": 128.2440300692,
    "img": "http://tong.visitkorea.or.kr/cms/resource/90/3082790_image2_1.jpg",
    "cat3": "A02010700"
   },
   {
    "title": "낙암서원",
    "addr": "경상북도 상주시 중동면 대바위길 183-13",
    "lat": 36.4104275695,
    "lng": 128.2704624024,
    "img": "http://tong.visitkorea.or.kr/cms/resource/37/3403637_image2_1.jpg",
    "cat3": "A02010700"
   },
   {
    "title": "노음산(노악산)",
    "addr": "경상북도 상주시 남장동",
    "lat": 36.4389461205,
    "lng": 128.0967215065,
    "img": "http://tong.visitkorea.or.kr/cms/resource/97/3579397_image2_1.jpg",
    "cat3": "A01010400"
   },
   {
    "title": "도남서원",
    "addr": "경상북도 상주시 도남2길 91 (도남동)",
    "lat": 36.4396989342,
    "lng": 128.254493552,
    "img": "http://tong.visitkorea.or.kr/cms/resource/56/3031056_image2_1.jpg",
    "cat3": "A02010700"
   },
   {
    "title": "도안서원",
    "addr": "경상북도 상주시 화동면 판곡1길 37",
    "lat": 36.4153633693,
    "lng": 127.9811630177,
    "img": "http://tong.visitkorea.or.kr/cms/resource/67/3403667_image2_1.jpg",
    "cat3": "A02010700"
   },
   {
    "title": "동해사(상주)",
    "addr": "경상북도 상주시 서곡3길 173",
    "lat": 36.4052267611,
    "lng": 128.1943109883,
    "img": "http://tong.visitkorea.or.kr/cms/resource/25/3413925_image2_1.jpg",
    "cat3": "A02010800"
   },
   {
    "title": "북장사(상주)",
    "addr": "경상북도 상주시 내서면 북장1길 317",
    "lat": 36.4377987304,
    "lng": 128.0804007707,
    "img": "http://tong.visitkorea.or.kr/cms/resource/29/3552129_image2_1.jpg",
    "cat3": "A02010800"
   },
   {
    "title": "상락사(상주)",
    "addr": "경상북도 상주시 서성4길 19 (서성동)",
    "lat": 36.4180746711,
    "lng": 128.1603803131,
    "img": "http://tong.visitkorea.or.kr/cms/resource/86/3552086_image2_1.jpg",
    "cat3": "A02010800"
   },
   {
    "title": "상주 금흔리 이부곡 토성",
    "addr": "경상북도 상주시 사벌국면 금흔리",
    "lat": 36.44204518,
    "lng": 128.2160219089,
    "img": "http://tong.visitkorea.or.kr/cms/resource/15/3410715_image2_1.jpg",
    "cat3": "A02010200"
   },
   {
    "title": "상주 승곡리 추원당",
    "addr": "경상북도 상주시 낙동면 양진당길 59-15",
    "lat": 36.3661762926,
    "lng": 128.2286868075,
    "img": "http://tong.visitkorea.or.kr/cms/resource/16/3410616_image2_1.jpg",
    "cat3": "A02010700"
   },
   {
    "title": "상주 양진당",
    "addr": "경상북도 상주시 낙동면 양진당길 27-4",
    "lat": 36.3641904147,
    "lng": 128.2290173891,
    "img": "http://tong.visitkorea.or.kr/cms/resource/42/3538842_image2_1.jpg",
    "cat3": "A02010700"
   },
   {
    "title": "상주 오작당",
    "addr": "경상북도 상주시 낙동면 선상서로 1975",
    "lat": 36.3604352438,
    "lng": 128.2266538163,
    "img": "http://tong.visitkorea.or.kr/cms/resource/58/3538858_image2_1.jpg",
    "cat3": "A02010700"
   },
   {
    "title": "상주 옥동서원",
    "addr": "경상북도 상주시 모동면 수봉2길 29",
    "lat": 36.2897853184,
    "lng": 127.9415644778,
    "img": "http://tong.visitkorea.or.kr/cms/resource/17/3539017_image2_1.jpg",
    "cat3": "A02010700"
   },
   {
    "title": "상주 임란북천전적지",
    "addr": "경상북도 상주시 경상대로 3123",
    "lat": 36.4255569754,
    "lng": 128.1508476184,
    "img": "http://tong.visitkorea.or.kr/cms/resource/19/3538819_image2_1.jpg",
    "cat3": "A02010700"
   },
   {
    "title": "상주 증촌리 석조여래입상",
    "addr": "경상북도 상주시 함창읍 증촌2길 10-13",
    "lat": 36.5681188462,
    "lng": 128.1716945166,
    "img": "http://tong.visitkorea.or.kr/cms/resource/29/3400429_image2_1.jpg",
    "cat3": "A02010700"
   },
   {
    "title": "상주 허씨비단직물",
    "addr": "경상북도 상주시 함창읍 어풍로 19",
    "lat": 36.566516434,
    "lng": 128.1815909018,
    "img": "http://tong.visitkorea.or.kr/cms/resource/95/3436895_image2_1.JPG",
    "cat3": "A02040800"
   },
   {
    "title": "상주곶감공원",
    "addr": "경상북도 상주시 외남면 곶감공원길 59-12",
    "lat": 36.3753812685,
    "lng": 128.1028810725,
    "img": "http://tong.visitkorea.or.kr/cms/resource/30/3510430_image2_1.jpg",
    "cat3": "A02020700"
   },
   {
    "title": "상주동학교당",
    "addr": "경상북도 상주시 은척면 우기1길 64",
    "lat": 36.5398172632,
    "lng": 128.0606246663,
    "img": "http://tong.visitkorea.or.kr/cms/resource/61/3410861_image2_1.jpg",
    "cat3": "A02010900"
   }
  ],
  "foods": [
   {
    "title": "고려분식",
    "addr": "경상북도 상주시 중앙시장길 29",
    "lat": 36.4145917598,
    "lng": 128.1617247358,
    "img": "http://tong.visitkorea.or.kr/cms/resource/43/2831643_image2_1.jpg",
    "cat3": "A05020100"
   },
   {
    "title": "남산가든",
    "addr": "경상북도 상주시 신서문1길 137",
    "lat": 36.407959027,
    "lng": 128.1531756833,
    "img": "http://tong.visitkorea.or.kr/cms/resource/74/2831674_image2_1.jpg",
    "cat3": "A05020100"
   },
   {
    "title": "루안",
    "addr": "경상북도 상주시 중앙로 177-7",
    "lat": 36.4159970795,
    "lng": 128.1575917316,
    "img": "http://tong.visitkorea.or.kr/cms/resource/90/2831690_image2_1.jpg",
    "cat3": "A05020400"
   },
   {
    "title": "상주주막",
    "addr": "경상북도 상주시 중동면 갱다불길 147",
    "lat": 36.4461955968,
    "lng": 128.2643397144,
    "img": "http://tong.visitkorea.or.kr/cms/resource/21/2900721_image2_1.jpg",
    "cat3": "A05020100"
   },
   {
    "title": "성수식당",
    "addr": "경상북도 상주시 화령남6길 17",
    "lat": 36.4450649948,
    "lng": 127.9517203695,
    "img": "http://tong.visitkorea.or.kr/cms/resource/11/2831711_image2_1.jpg",
    "cat3": "A05020400"
   },
   {
    "title": "수라간",
    "addr": "경상북도 상주시 상서문3길 119",
    "lat": 36.4144444876,
    "lng": 128.1580667327,
    "img": "http://tong.visitkorea.or.kr/cms/resource/42/2831742_image2_1.jpg",
    "cat3": "A05020100"
   },
   {
    "title": "청자",
    "addr": "경상북도 상주시 북상주로 539-5",
    "lat": 36.4748489438,
    "lng": 128.1713055206,
    "img": "http://tong.visitkorea.or.kr/cms/resource/54/2831754_image2_1.jpg",
    "cat3": "A05020400"
   },
   {
    "title": "개운궁",
    "addr": "경상북도 상주시 경상대로 2882 (개운동)",
    "lat": 36.4048287656,
    "lng": 128.1497288558,
    "img": "",
    "cat3": "A05020100"
   },
   {
    "title": "묘봉두부마을",
    "addr": "경상북도 상주시 화북면 속리산로 2348",
    "lat": 36.5952397686,
    "lng": 127.8150311601,
    "img": "",
    "cat3": "A05020100"
   },
   {
    "title": "상주청정한우",
    "addr": "경상북도 상주시 낙동면 영남제일로 52-5",
    "lat": 36.360297713,
    "lng": 128.2995667846,
    "img": "",
    "cat3": "A05020100"
   },
   {
    "title": "지천식당",
    "addr": "경상북도 상주시 남상주로 1460",
    "lat": 36.3621002753,
    "lng": 128.1479107714,
    "img": "",
    "cat3": "A05020100"
   }
  ],
  "cafes": [
   {
    "title": "구프커피",
    "addr": "경상북도 상주시 개운2길 19-12",
    "lat": 36.4036010591,
    "lng": 128.1459764469,
    "img": "http://tong.visitkorea.or.kr/cms/resource/59/2831659_image2_1.jpg",
    "cat3": "A05020900"
   },
   {
    "title": "명주정원",
    "addr": "경상북도 상주시 새잼이길 7",
    "lat": 36.5765649953,
    "lng": 128.1658864619,
    "img": "http://tong.visitkorea.or.kr/cms/resource/02/2831702_image2_1.jpg",
    "cat3": "A05020900"
   },
   {
    "title": "상주공간",
    "addr": "경상북도 상주시 남성2길 22 (남성동)",
    "lat": 36.4086534908,
    "lng": 128.1585501851,
    "img": "http://tong.visitkorea.or.kr/cms/resource/06/3551106_image2_1.jpg",
    "cat3": "A05020900"
   },
   {
    "title": "소레다",
    "addr": "경상북도 상주시 봉양2길 8-7",
    "lat": 36.4203327117,
    "lng": 128.1584720864,
    "img": "http://tong.visitkorea.or.kr/cms/resource/28/2831728_image2_1.jpg",
    "cat3": "A05020900"
   },
   {
    "title": "카페둥시",
    "addr": "경상북도 상주시 자산길 28-24",
    "lat": 36.4237376976,
    "lng": 128.1486145351,
    "img": "http://tong.visitkorea.or.kr/cms/resource/68/2831768_image2_1.jpg",
    "cat3": "A05020900"
   }
  ],
  "culture": [
   {
    "title": "국립낙동강생물자원관",
    "addr": "경상북도 상주시 도남2길 137 (도남동)",
    "lat": 36.4458843813,
    "lng": 128.2567987281,
    "img": "http://tong.visitkorea.or.kr/cms/resource/37/3573537_image2_1.JPG",
    "cat3": "A02060300"
   },
   {
    "title": "낙동강역사이야기관",
    "addr": "경상북도 상주시 낙동면 낙동1길 116",
    "lat": 36.366427739,
    "lng": 128.3087602398,
    "img": "http://tong.visitkorea.or.kr/cms/resource/70/3579370_image2_1.jpg",
    "cat3": "A02060300"
   },
   {
    "title": "상주 자전거박물관",
    "addr": "경상북도 상주시 용마로 415 (도남동)",
    "lat": 36.4532751731,
    "lng": 128.2550847823,
    "img": "http://tong.visitkorea.or.kr/cms/resource/93/2492593_image2_1.jpg",
    "cat3": "A02060100"
   },
   {
    "title": "상주문화원",
    "addr": "경상북도 상주시 상산로 235",
    "lat": 36.4119142407,
    "lng": 128.1591528182,
    "img": "http://tong.visitkorea.or.kr/cms/resource/21/3353421_image2_1.JPG",
    "cat3": "A02060700"
   },
   {
    "title": "효자 정재수 기념관",
    "addr": "경상북도 상주시 화서면 효자로 201",
    "lat": 36.4164010793,
    "lng": 127.9228848506,
    "img": "http://tong.visitkorea.or.kr/cms/resource/79/3031079_image2_1.jpg",
    "cat3": "A02060200"
   }
  ],
  "shopping": [
   {
    "title": "상주곶감유통센터 상주곶감직판장",
    "addr": "경상북도 상주시 영남제일로 1154",
    "lat": 36.4161036345,
    "lng": 128.2126257201,
    "img": "http://tong.visitkorea.or.kr/cms/resource/83/3039083_image2_1.jpg",
    "cat3": "A04010900"
   },
   {
    "title": "함창전통시장",
    "addr": "경상북도 상주시 함창읍 함창시장3길 46",
    "lat": 36.5674524017,
    "lng": 128.1796327166,
    "img": "http://tong.visitkorea.or.kr/cms/resource/33/3590933_image2_1.jpg",
    "cat3": "A04010100"
   },
   {
    "title": "화령시장",
    "addr": "경상북도 상주시 화서면 화령남6길 7",
    "lat": 36.4447955632,
    "lng": 127.9507232436,
    "img": "http://tong.visitkorea.or.kr/cms/resource/37/3567437_image2_1.jpg",
    "cat3": "A04010100"
   },
   {
    "title": "상주장 / 상주중앙시장 (2, 7일)",
    "addr": "경상북도 상주시 중앙시장길 1-7",
    "lat": 36.4132196925,
    "lng": 128.1616081186,
    "img": "",
    "cat3": "A04010100"
   }
  ],
  "leports": [
   {
    "title": "맑은개울캠핑장",
    "addr": "경상북도 상주시 화서면 하송3길 178-5",
    "lat": 36.4860604386,
    "lng": 127.9588602538,
    "img": "http://tong.visitkorea.or.kr/cms/resource/71/2747571_image2_1.jpg",
    "cat3": "A03021700"
   },
   {
    "title": "문장대오토캠핑장",
    "addr": "경상북도 상주시 화북면 문장로 1506-16",
    "lat": 36.5442225892,
    "lng": 127.9237312058,
    "img": "http://tong.visitkorea.or.kr/cms/resource/37/2729037_image2_1.jpg",
    "cat3": "A03021700"
   },
   {
    "title": "상주 감꽃마을 서울시캠핑장",
    "addr": "경상북도 상주시 낙동면 선상서로 1587",
    "lat": 36.3301606768,
    "lng": 128.2135030566,
    "img": "http://tong.visitkorea.or.kr/cms/resource/72/2763372_image2_1.jpg",
    "cat3": "A03021700"
   },
   {
    "title": "상주보오토캠핑장",
    "addr": "경상북도 상주시 용마로 164-34 (도남동)",
    "lat": 19.69442748,
    "lng": 117.9925662504,
    "img": "http://tong.visitkorea.or.kr/cms/resource/86/2728386_image2_1.JPG",
    "cat3": "A03021700"
   },
   {
    "title": "상주보캠프존휴",
    "addr": "경상북도 상주시 용마로 469-10",
    "lat": 36.4555248497,
    "lng": 128.2514739289,
    "img": "http://tong.visitkorea.or.kr/cms/resource/92/2728292_image2_1.jpg",
    "cat3": "A03021700"
   },
   {
    "title": "상주우산오토캠핑장",
    "addr": "경상북도 상주시 외서면 채릉산로 752",
    "lat": 36.4723611782,
    "lng": 128.0656538924,
    "img": "http://tong.visitkorea.or.kr/cms/resource/13/2728313_image2_1.jpg",
    "cat3": "A03021700"
   },
   {
    "title": "성주봉자연휴양림 야영장",
    "addr": "경상북도 상주시 은척면 성주봉로 3",
    "lat": 36.5336453831,
    "lng": 128.040779388,
    "img": "http://tong.visitkorea.or.kr/cms/resource/75/2743575_image2_1.JPG",
    "cat3": "A03021700"
   },
   {
    "title": "속리산사계절캠핑장",
    "addr": "경상북도 상주시 화북면 중벌2길 18-61",
    "lat": 36.600722922,
    "lng": 127.8396482499,
    "img": "http://tong.visitkorea.or.kr/cms/resource/79/2743479_image2_1.jpg",
    "cat3": "A03021700"
   },
   {
    "title": "속리산시어동캠핑장",
    "addr": "경상북도 상주시 화북면 문장대2길 50",
    "lat": 36.5703692612,
    "lng": 127.9053487824,
    "img": "http://tong.visitkorea.or.kr/cms/resource/54/2909354_image2_1.jpg",
    "cat3": "A03021700"
   },
   {
    "title": "청화산 늘재방면",
    "addr": "경상북도 상주시 화북면 문장로 2096-5",
    "lat": 36.5922445153,
    "lng": 127.9043065956,
    "img": "http://tong.visitkorea.or.kr/cms/resource/71/2756771_image2_1.jpg",
    "cat3": "A03022700"
   }
  ],
  "stays": [],
  "festivals": [
   {
    "title": "굿네이버스 세계 놀이 페스티벌 '놀자GO! 지구로!'",
    "addr": "경상북도 포항시 북구 양덕남로 166 (양덕동)",
    "lat": 36.0800254208,
    "lng": 129.4107100131,
    "img": "http://tong.visitkorea.or.kr/cms/resource/61/3567661_image2_1.jpg",
    "cat3": "A02081300",
    "tel": "053-214-7124",
    "start": "20251207",
    "end": "20251207",
    "scope": "sido",
    "status": "annual"
   },
   {
    "title": "아이가 행복입니다 해피투게더 경북 in 포항",
    "addr": "경상북도 포항시 남구 희망대로 814 (대도동)",
    "lat": 36.0065133515,
    "lng": 129.3615414552,
    "img": "http://tong.visitkorea.or.kr/cms/resource/22/3567122_image2_1.jpg",
    "cat3": "A02081300",
    "tel": "1688-5368",
    "start": "20251121",
    "end": "20251122",
    "scope": "sido",
    "status": "annual"
   },
   {
    "title": "죽변항 수산물축제",
    "addr": "경상북도 울진군 죽변면 죽변항길 150",
    "lat": 37.0571311575,
    "lng": 129.4250268958,
    "img": "http://tong.visitkorea.or.kr/cms/resource/82/3563382_image2_1.jpg",
    "cat3": "A02070200",
    "tel": "054-789-5485~7",
    "start": "20251107",
    "end": "20251109",
    "scope": "sido",
    "status": "annual"
   },
   {
    "title": "2025 한국공예전 <미래유산_우리가 남기고자 하는 것들에 관하여>",
    "addr": "경상북도 경주시 경감로 627 (천군동)",
    "lat": 35.8339676142,
    "lng": 129.2911192494,
    "img": "http://tong.visitkorea.or.kr/cms/resource/40/3553940_image2_1.jpg",
    "cat3": "A02080500",
    "tel": "02-398-7936",
    "start": "20251027",
    "end": "20251130",
    "scope": "sido",
    "status": "annual"
   },
   {
    "title": "2025 포항스틸아트페스티벌 (2025PSAF)",
    "addr": "경상북도 포항시 북구 선착로 78 (동빈1가)",
    "lat": 36.0486865532,
    "lng": 129.3716421277,
    "img": "http://tong.visitkorea.or.kr/cms/resource/03/3547903_image2_1.jpg",
    "cat3": "A02080500",
    "tel": "054-289-7854",
    "start": "20251025",
    "end": "20251109",
    "scope": "sido",
    "status": "annual"
   },
   {
    "title": "문경사과축제",
    "addr": "경상북도 문경시 문경읍 새재로 932",
    "lat": 36.761650493,
    "lng": 128.0770113639,
    "img": "http://tong.visitkorea.or.kr/cms/resource/23/3531723_image2_1.jpg",
    "cat3": "A02070200",
    "tel": "054-571-7677",
    "start": "20251018",
    "end": "20251026",
    "scope": "sido",
    "status": "annual"
   }
  ],
  "heritage_mapped": 75
 },
 {
  "region": "충청남도 공주시",
  "sido": "충남",
  "sigungu": "공주시",
  "theme": "문화유산형",
  "segment": "숨은매력지(문화유산형)",
  "composite": 1.39,
  "hidden_score": 2.52,
  "heritage": 165,
  "axes": {
   "visit": 3.3,
   "attract": 1.3,
   "connect": -0.4
  },
  "lat": 36.457079,
  "lng": 127.139938,
  "spots": [
   {
    "title": "갑사",
    "addr": "충청남도 공주시 계룡면 갑사로 567-3",
    "lat": 36.3650187978,
    "lng": 127.1875769727,
    "img": "http://tong.visitkorea.or.kr/cms/resource/19/3533519_image2_1.jpg",
    "cat3": "A02010800"
   },
   {
    "title": "계룡산상신농촌체험휴양마을",
    "addr": "충청남도 공주시 반포면 상하신길 396",
    "lat": 36.3847448812,
    "lng": 127.21959024,
    "img": "http://tong.visitkorea.or.kr/cms/resource/63/3355563_image2_1.jpg",
    "cat3": "A02030100"
   },
   {
    "title": "고로서원",
    "addr": "충청남도 공주시 사곡면 능계길 60-67",
    "lat": 36.5109630539,
    "lng": 127.0224573019,
    "img": "http://tong.visitkorea.or.kr/cms/resource/00/3334100_image2_1.jpg",
    "cat3": "A02010700"
   },
   {
    "title": "곰나루국민관광단지",
    "addr": "충청남도 공주시 백제큰길 2110-16 (웅진동)",
    "lat": 36.4702692908,
    "lng": 127.1117170502,
    "img": "http://tong.visitkorea.or.kr/cms/resource/26/3534726_image2_1.jpg",
    "cat3": "A02020200"
   },
   {
    "title": "공산성연지",
    "addr": "충청남도 공주시 금성동",
    "lat": 36.4639480871,
    "lng": 127.1284157218,
    "img": "http://tong.visitkorea.or.kr/cms/resource/15/2916015_image2_1.jpg",
    "cat3": "A02010700"
   },
   {
    "title": "공주 갑사 철당간",
    "addr": "충청남도 공주시 계룡면 중장리",
    "lat": 36.3647465688,
    "lng": 127.1854160623,
    "img": "http://tong.visitkorea.or.kr/cms/resource/99/3560499_image2_1.jpg",
    "cat3": "A02010800"
   },
   {
    "title": "공주 고마나루",
    "addr": "충청남도 공주시 백제큰길 2045 (웅진동)",
    "lat": 36.4687082638,
    "lng": 127.1063453516,
    "img": "http://tong.visitkorea.or.kr/cms/resource/38/3534838_image2_1.jpg",
    "cat3": "A02020700"
   },
   {
    "title": "공주 우금치 전적",
    "addr": "충청남도 공주시 금학동",
    "lat": 37.0000500157,
    "lng": 127.1119164418,
    "img": "http://tong.visitkorea.or.kr/cms/resource/21/3334021_image2_1.jpg",
    "cat3": "A02010700"
   },
   {
    "title": "공주 원골마을",
    "addr": "충청남도 공주시 신풍면 원골예술길 89",
    "lat": 36.5276461638,
    "lng": 126.9604874236,
    "img": "http://tong.visitkorea.or.kr/cms/resource/85/3534885_image2_1.jpg",
    "cat3": "A02030100"
   },
   {
    "title": "공주 정지산 유적",
    "addr": "충청남도 공주시 금성동",
    "lat": 36.4695139254,
    "lng": 127.1175998755,
    "img": "http://tong.visitkorea.or.kr/cms/resource/79/2734979_image2_1.jpg",
    "cat3": "A02010700"
   },
   {
    "title": "공주 중동성당",
    "addr": "충청남도 공주시 성당길 6",
    "lat": 36.4551824131,
    "lng": 127.1277076887,
    "img": "http://tong.visitkorea.or.kr/cms/resource/04/3338804_image2_1.jpg",
    "cat3": "A02010900"
   },
   {
    "title": "공주 중학동 구 선교사 가옥",
    "addr": "충청남도 공주시 쪽지골길 18-13",
    "lat": 36.449491377,
    "lng": 127.1264579543,
    "img": "http://tong.visitkorea.or.kr/cms/resource/13/3536313_image2_1.jpg",
    "cat3": "A02010400"
   },
   {
    "title": "공주 환경성 건강 센터",
    "addr": "충청남도 공주시 수원지공원길 131-21 (금학동)",
    "lat": 36.4304352185,
    "lng": 127.1259251817,
    "img": "http://tong.visitkorea.or.kr/cms/resource/36/3038536_image2_1.jpg",
    "cat3": "A02020500"
   },
   {
    "title": "공주 황새바위 순교성지",
    "addr": "충청남도 공주시 왕릉로 118 (금성동)",
    "lat": 36.4639646057,
    "lng": 127.1200886904,
    "img": "http://tong.visitkorea.or.kr/cms/resource/84/3390284_image2_1.JPG",
    "cat3": "A02010900"
   },
   {
    "title": "공주상신리 당간지주",
    "addr": "충청남도 공주시 반포면",
    "lat": 36.3844532202,
    "lng": 127.2180070562,
    "img": "http://tong.visitkorea.or.kr/cms/resource/21/3355621_image2_1.jpg",
    "cat3": "A02010800"
   },
   {
    "title": "공주서혈사지",
    "addr": "충청남도 공주시 시어골2길 96-44 (웅진동)",
    "lat": 36.4434028916,
    "lng": 127.1097151753,
    "img": "http://tong.visitkorea.or.kr/cms/resource/66/3337966_image2_1.jpg",
    "cat3": "A02010700"
   },
   {
    "title": "공주시 안전체험공원",
    "addr": "충청남도 공주시 월미동길 219 (월미동)",
    "lat": 36.4945079541,
    "lng": 127.0990314234,
    "img": "http://tong.visitkorea.or.kr/cms/resource/15/2737215_image2_1.jpg",
    "cat3": "A02020600"
   },
   {
    "title": "공주치즈스쿨",
    "addr": "충청남도 공주시 신풍면 심방울2길 37-4",
    "lat": 36.5198051423,
    "lng": 126.9459000567,
    "img": "http://tong.visitkorea.or.kr/cms/resource/10/3393410_image2_1.JPG",
    "cat3": "A02030400"
   },
   {
    "title": "공주향교",
    "addr": "충청남도 공주시 향교1길 26",
    "lat": 36.4583568588,
    "lng": 127.1168863516,
    "img": "http://tong.visitkorea.or.kr/cms/resource/53/3355653_image2_1.jpg",
    "cat3": "A02010700"
   },
   {
    "title": "금강아트센터",
    "addr": "충청남도 공주시 반포면 왕흥장악로 837",
    "lat": 36.4289311787,
    "lng": 127.2021461657,
    "img": "http://tong.visitkorea.or.kr/cms/resource/73/3396473_image2_1.JPG",
    "cat3": "A02030400"
   }
  ],
  "foods": [
   {
    "title": "고마나루1999",
    "addr": "충청남도 공주시 백미고을길 5-8 (금성동)",
    "lat": 36.4650256418,
    "lng": 127.1227467571,
    "img": "http://tong.visitkorea.or.kr/cms/resource/81/3057481_image2_1.JPG",
    "cat3": "A05020100"
   },
   {
    "title": "고창애풍천장어",
    "addr": "충청남도 공주시 창벽로 234-1",
    "lat": 36.4508112728,
    "lng": 127.1606770704,
    "img": "http://tong.visitkorea.or.kr/cms/resource/16/2876316_image2_1.jpg",
    "cat3": "A05020100"
   },
   {
    "title": "곰골식당",
    "addr": "충청남도 공주시 봉황산1길 1-2",
    "lat": 36.4518298957,
    "lng": 127.1206250807,
    "img": "http://tong.visitkorea.or.kr/cms/resource/39/2736839_image2_1.jpg",
    "cat3": "A05020100"
   },
   {
    "title": "곰선생동태씨",
    "addr": "충청남도 공주시 무령로 466-3",
    "lat": 36.4674173959,
    "lng": 127.1432726278,
    "img": "http://tong.visitkorea.or.kr/cms/resource/18/2876718_image2_1.jpg",
    "cat3": "A05020100"
   },
   {
    "title": "까우",
    "addr": "충청남도 공주시 번영3로 58",
    "lat": 36.4717723292,
    "lng": 127.1363064692,
    "img": "http://tong.visitkorea.or.kr/cms/resource/60/2929560_image2_1.jpg",
    "cat3": "A05020200"
   },
   {
    "title": "늘푸른솔",
    "addr": "충청남도 공주시 사곡면 정안마곡사로 1198",
    "lat": 36.5868686545,
    "lng": 127.0467475146,
    "img": "http://tong.visitkorea.or.kr/cms/resource/10/1946210_image2_1.jpg",
    "cat3": "A05020100"
   },
   {
    "title": "대부곱창",
    "addr": "충청남도 공주시 번영2로 54-21",
    "lat": 36.4723722559,
    "lng": 127.1360536979,
    "img": "http://tong.visitkorea.or.kr/cms/resource/46/2929746_image2_1.jpg",
    "cat3": "A05020100"
   },
   {
    "title": "도덕봉가든",
    "addr": "충청남도 공주시 반포면 동학사1로 159",
    "lat": 36.3601315716,
    "lng": 127.2501520559,
    "img": "http://tong.visitkorea.or.kr/cms/resource/17/2929817_image2_1.jpg",
    "cat3": "A05020100"
   },
   {
    "title": "돈금정",
    "addr": "충청남도 공주시 계룡대로 1370",
    "lat": 36.3578457817,
    "lng": 127.2535157052,
    "img": "http://tong.visitkorea.or.kr/cms/resource/91/2929891_image2_1.jpg",
    "cat3": "A05020100"
   },
   {
    "title": "동학사농원",
    "addr": "충청남도 공주시 동학사2로 46",
    "lat": 36.3584817191,
    "lng": 127.2478189764,
    "img": "http://tong.visitkorea.or.kr/cms/resource/66/2876866_image2_1.jpg",
    "cat3": "A05020100"
   },
   {
    "title": "동해원",
    "addr": "충청남도 공주시 납다리길 22 (소학동)",
    "lat": 36.4503194384,
    "lng": 127.1479643356,
    "img": "http://tong.visitkorea.or.kr/cms/resource/86/2796986_image2_1.jpg",
    "cat3": "A05020400"
   },
   {
    "title": "라루체",
    "addr": "충청남도 공주시 반포면 계룡대로 1392",
    "lat": 36.3597705463,
    "lng": 127.2526573968,
    "img": "http://tong.visitkorea.or.kr/cms/resource/10/2735110_image2_1.jpg",
    "cat3": "A05020200"
   },
   {
    "title": "마세오른",
    "addr": "충청남도 공주시 반포면 정광터1길 98-20",
    "lat": 36.4032568837,
    "lng": 127.2328413307,
    "img": "http://tong.visitkorea.or.kr/cms/resource/23/2767123_image2_1.jpg",
    "cat3": "A05020100"
   },
   {
    "title": "밥꽃하나피었네",
    "addr": "충청남도 공주시 계룡면 신원사로 502",
    "lat": 36.3325778994,
    "lng": 127.1780314776,
    "img": "http://tong.visitkorea.or.kr/cms/resource/24/2013724_image2_1.jpg",
    "cat3": "A05020100"
   },
   {
    "title": "북경탕수육",
    "addr": "충청남도 공주시 중동1길 5-18",
    "lat": 36.4551490368,
    "lng": 127.1250468167,
    "img": "http://tong.visitkorea.or.kr/cms/resource/27/2876927_image2_1.jpg",
    "cat3": "A05020400"
   }
  ],
  "cafes": [
   {
    "title": "공다방",
    "addr": "충청남도 공주시 백미고을길 5-3",
    "lat": 36.4651450786,
    "lng": 127.1230828345,
    "img": "http://tong.visitkorea.or.kr/cms/resource/46/2876746_image2_1.png",
    "cat3": "A05020900"
   },
   {
    "title": "그루잠",
    "addr": "충청남도 공주시 수실1길 82",
    "lat": 36.4035655725,
    "lng": 127.2549671177,
    "img": "http://tong.visitkorea.or.kr/cms/resource/27/2876827_image2_1.jpg",
    "cat3": "A05020900"
   },
   {
    "title": "로컬커피",
    "addr": "충청남도 공주시 용당길 55-7",
    "lat": 36.4587012885,
    "lng": 127.1182945492,
    "img": "http://tong.visitkorea.or.kr/cms/resource/91/2876891_image2_1.png",
    "cat3": "A05020900"
   },
   {
    "title": "롱디커피",
    "addr": "충청남도 공주시 금벽로 1071",
    "lat": 36.4439377048,
    "lng": 127.1972045365,
    "img": "http://tong.visitkorea.or.kr/cms/resource/65/2834365_image2_1.jpg",
    "cat3": "A05020900"
   },
   {
    "title": "베이커리 밤마을",
    "addr": "충청남도 공주시 백미고을길 5-13",
    "lat": 36.4646256912,
    "lng": 127.1229245295,
    "img": "http://tong.visitkorea.or.kr/cms/resource/75/2834375_image2_1.jpg",
    "cat3": "A05020900"
   },
   {
    "title": "숲너울",
    "addr": "충청남도 공주시 유구읍 문금길 413",
    "lat": 36.6460612569,
    "lng": 127.0128684044,
    "img": "http://tong.visitkorea.or.kr/cms/resource/79/2795479_image2_1.jpg",
    "cat3": "A05020900"
   },
   {
    "title": "숲카페",
    "addr": "충청남도 공주시 동학사1로 256-26",
    "lat": 36.3598397118,
    "lng": 127.2373004369,
    "img": "http://tong.visitkorea.or.kr/cms/resource/62/2876962_image2_1.jpg",
    "cat3": "A05020900"
   },
   {
    "title": "어썸845",
    "addr": "충청남도 공주시 동학사1로 209-8",
    "lat": 36.3594315497,
    "lng": 127.2443775913,
    "img": "http://tong.visitkorea.or.kr/cms/resource/96/2876996_image2_1.jpg",
    "cat3": "A05020900"
   },
   {
    "title": "에어산",
    "addr": "충청남도 공주시 임금봉길 88-27",
    "lat": 36.3662197871,
    "lng": 127.251482328,
    "img": "http://tong.visitkorea.or.kr/cms/resource/93/2834393_image2_1.jpg",
    "cat3": "A05020900"
   },
   {
    "title": "온더기와",
    "addr": "충청남도 공주시 밀목재길 27-14",
    "lat": 36.3406670729,
    "lng": 127.2467584396,
    "img": "http://tong.visitkorea.or.kr/cms/resource/46/2877046_image2_1.jpg",
    "cat3": "A05020900"
   }
  ],
  "culture": [
   {
    "title": "가가책방",
    "addr": "충청남도 공주시 당간지주길 10 (반죽동)",
    "lat": 36.4521187744,
    "lng": 127.121974952,
    "img": "http://tong.visitkorea.or.kr/cms/resource/06/3564906_image2_1.jpg",
    "cat3": "A02061000"
   },
   {
    "title": "공주문예회관",
    "addr": "충청남도 공주시 고마나루길 5",
    "lat": 36.4601871137,
    "lng": 127.1117228761,
    "img": "http://tong.visitkorea.or.kr/cms/resource/53/3338753_image2_1.jpg",
    "cat3": "A02060600"
   },
   {
    "title": "공주민속극박물관",
    "addr": "충청남도 공주시 의당면 돌모루2길 17-15",
    "lat": 36.5022801508,
    "lng": 127.1481684687,
    "img": "http://tong.visitkorea.or.kr/cms/resource/92/3338692_image2_1.jpg",
    "cat3": "A02060100"
   },
   {
    "title": "구 공주읍사무소 (공주역사영상관)",
    "addr": "충청남도 공주시 우체국길 8 (반죽동)",
    "lat": 36.4544740602,
    "lng": 127.1219721109,
    "img": "http://tong.visitkorea.or.kr/cms/resource/06/3390706_image2_1.JPG",
    "cat3": "A02060300"
   },
   {
    "title": "국립공주박물관",
    "addr": "충청남도 공주시 관광단지길 34 (웅진동)",
    "lat": 36.4665696863,
    "lng": 127.1100589651,
    "img": "http://tong.visitkorea.or.kr/cms/resource/33/3534933_image2_1.jpg",
    "cat3": "A02060100"
   },
   {
    "title": "도령서당",
    "addr": "충청남도 공주시 의당면 서당길 144-13",
    "lat": 36.5559460907,
    "lng": 127.1411398684,
    "img": "http://tong.visitkorea.or.kr/cms/resource/10/3390310_image2_1.JPG",
    "cat3": "A02061400"
   },
   {
    "title": "박동진 판소리전수관",
    "addr": "충청남도 공주시 무릉중말길 22-14",
    "lat": 36.4581967182,
    "lng": 127.1709398394,
    "img": "http://tong.visitkorea.or.kr/cms/resource/73/3355673_image2_1.jpg",
    "cat3": "A02061100"
   },
   {
    "title": "임립미술관",
    "addr": "충청남도 공주시 계룡면 봉곡길 77-13",
    "lat": 36.3964282617,
    "lng": 127.1405442311,
    "img": "http://tong.visitkorea.or.kr/cms/resource/70/3334170_image2_1.jpg",
    "cat3": "A02060500"
   },
   {
    "title": "지당자연사박물관",
    "addr": "충청남도 공주시 탄천면 광명리",
    "lat": 36.3247463012,
    "lng": 127.06751381,
    "img": "http://tong.visitkorea.or.kr/cms/resource/89/3355689_image2_1.jpg",
    "cat3": "A02060100"
   },
   {
    "title": "한국문화연수원",
    "addr": "충청남도 공주시 사곡면 마곡사로 1065",
    "lat": 36.5662981517,
    "lng": 127.0101319181,
    "img": "http://tong.visitkorea.or.kr/cms/resource/55/3338555_image2_1.JPG",
    "cat3": "A02060700"
   },
   {
    "title": "한국자연사박물관",
    "addr": "충청남도 공주시 반포면 임금봉길 49-25",
    "lat": 36.3664029859,
    "lng": 127.245055121,
    "img": "http://tong.visitkorea.or.kr/cms/resource/32/3390232_image2_1.JPG",
    "cat3": "A02060100"
   }
  ],
  "shopping": [
   {
    "title": "공주산성시장",
    "addr": "충청남도 공주시 용당길 22 (산성동)",
    "lat": 36.4588624574,
    "lng": 127.1226274895,
    "img": "http://tong.visitkorea.or.kr/cms/resource/15/3534915_image2_1.jpg",
    "cat3": "A04010200"
   }
  ],
  "leports": [
   {
    "title": "계룡산글램핑",
    "addr": "충청남도 공주시 반포면 계룡대로 1352",
    "lat": 36.356065429,
    "lng": 127.2534796456,
    "img": "http://tong.visitkorea.or.kr/cms/resource/60/3396460_image2_1.JPG",
    "cat3": "A03021700"
   },
   {
    "title": "계룡산동학사자동차야영장",
    "addr": "충청남도 공주시 반포면 동학사2로 115-16",
    "lat": 36.3577678025,
    "lng": 127.2416084404,
    "img": "http://tong.visitkorea.or.kr/cms/resource/98/2738998_image2_1.JPG",
    "cat3": "A03021700"
   },
   {
    "title": "계룡저수지",
    "addr": "충청남도 공주시 계룡면 하대리",
    "lat": 36.3580467675,
    "lng": 127.1531163587,
    "img": "http://tong.visitkorea.or.kr/cms/resource/13/3396413_image2_1.jpg",
    "cat3": "A03030500"
   },
   {
    "title": "공주계곡캠핑장",
    "addr": "충청남도 공주시 사곡면 운정길 20",
    "lat": 36.5578604104,
    "lng": 127.0203201192,
    "img": "http://tong.visitkorea.or.kr/cms/resource/44/2727044_image2_1.jpg",
    "cat3": "A03021700"
   },
   {
    "title": "공주북캠프",
    "addr": "충청남도 공주시 신풍면 영정길 155-3",
    "lat": 36.5146648607,
    "lng": 126.9913127791,
    "img": "http://tong.visitkorea.or.kr/cms/resource/12/3587712_image2_1.jpg",
    "cat3": "A03021700"
   },
   {
    "title": "그리심 글램핑장",
    "addr": "충청남도 공주시 정안면 어물길 395",
    "lat": 36.5891979467,
    "lng": 127.1478078106,
    "img": "http://tong.visitkorea.or.kr/cms/resource/16/2908816_image2_1.jpg",
    "cat3": "A03021700"
   },
   {
    "title": "금계캠핑장",
    "addr": "충청남도 공주시 유구읍 문금길 86",
    "lat": 36.6376533756,
    "lng": 126.9836212651,
    "img": "http://tong.visitkorea.or.kr/cms/resource/10/2908810_image2_1.jpg",
    "cat3": "A03021700"
   },
   {
    "title": "녹수원글램핑",
    "addr": "충청남도 공주시 유구읍 덕곡리",
    "lat": 36.6286486142,
    "lng": 126.969914409,
    "img": "http://tong.visitkorea.or.kr/cms/resource/97/2728697_image2_1.jpg",
    "cat3": "A03021700"
   },
   {
    "title": "베스트필드 글램핑",
    "addr": "충청남도 공주시 반포면 동학사1로 65",
    "lat": 36.3662115657,
    "lng": 127.2577456561,
    "img": "http://tong.visitkorea.or.kr/cms/resource/58/2765058_image2_1.jpg",
    "cat3": "A03021700"
   },
   {
    "title": "사계절캠핑장",
    "addr": "충청남도 공주시 유구읍 무드리길 64",
    "lat": 36.6388029702,
    "lng": 126.9680587463,
    "img": "http://tong.visitkorea.or.kr/cms/resource/30/2727730_image2_1.jpg",
    "cat3": "A03021700"
   }
  ],
  "stays": [
   {
    "title": "봉황재 한옥 게스트하우스",
    "addr": "충청남도 공주시 큰샘3길 8",
    "lat": 36.4508188891,
    "lng": 127.120030717,
    "img": "http://tong.visitkorea.or.kr/cms/resource/81/2707581_image2_1.jpeg",
    "cat3": "B02011600"
   },
   {
    "title": "호스텔정중동",
    "addr": "충청남도 공주시 웅진로 145-9 (중동)",
    "lat": 36.4530798041,
    "lng": 127.1235942252,
    "img": "http://tong.visitkorea.or.kr/cms/resource/39/3545039_image2_1.jpg",
    "cat3": "B02010700"
   },
   {
    "title": "공주공산성게스트 하우스",
    "addr": "충청남도 공주시 백미고을길 5-4",
    "lat": 36.4651700701,
    "lng": 127.1227634182,
    "img": "",
    "cat3": "B02011600"
   },
   {
    "title": "굿모닝 관광펜션",
    "addr": "충청남도 공주시 사곡면 단평길 245",
    "lat": 36.5306302273,
    "lng": 127.0216901749,
    "img": "",
    "cat3": "B02010700"
   },
   {
    "title": "담담",
    "addr": "충청남도 공주시 봉황로 86-8 (반죽동)",
    "lat": 36.453646376,
    "lng": 127.1218999174,
    "img": "",
    "cat3": "B02011600"
   },
   {
    "title": "청담",
    "addr": "충청남도 공주시 은행나무길 5 (반죽동)",
    "lat": 36.4558738758,
    "lng": 127.1206083067,
    "img": "",
    "cat3": "B02011600"
   },
   {
    "title": "혜간헌",
    "addr": "충청남도 공주시 송산리길 38-5",
    "lat": 36.4622813968,
    "lng": 127.1162168613,
    "img": "",
    "cat3": "B02011600"
   },
   {
    "title": "황토한옥고마",
    "addr": "충청남도 공주시 미나리1길 18-4",
    "lat": 36.4614454902,
    "lng": 127.122366332,
    "img": "",
    "cat3": "B02011600"
   }
  ],
  "festivals": [
   {
    "title": "2025 문화공간 어디쉐어 <공주 하숙동 1번지> 시즌2",
    "addr": "충청남도 공주시 당간지주길 21 (반죽동)",
    "lat": 36.4522271167,
    "lng": 127.1231998391,
    "img": "http://tong.visitkorea.or.kr/cms/resource/79/3524279_image2_1.png",
    "cat3": "A02081300",
    "tel": "041-852-1321",
    "start": "20250919",
    "end": "20250920",
    "scope": "sigungu",
    "status": "annual"
   }
  ],
  "heritage_mapped": 98
 },
 {
  "region": "전라북도 익산시",
  "sido": "전북",
  "sigungu": "익산시",
  "theme": "문화유산형",
  "segment": "숨은매력지(문화유산형)",
  "composite": 1.4,
  "hidden_score": 2.29,
  "heritage": 107,
  "axes": {
   "visit": -0.9,
   "attract": 4.2,
   "connect": 0.8
  },
  "lat": 36.009357,
  "lng": 126.994195,
  "spots": [
   {
    "title": "고스락",
    "addr": "전북특별자치도 익산시 함열읍 익산대로 1424-14",
    "lat": 36.0459040975,
    "lng": 126.9606807544,
    "img": "http://tong.visitkorea.or.kr/cms/resource/35/3086435_image2_1.jpg",
    "cat3": "A02030400"
   },
   {
    "title": "공룡테마공원 (다이노 키즈월드)",
    "addr": "전북특별자치도 익산시 왕궁면 호반로 8",
    "lat": 35.9907045238,
    "lng": 127.102605645,
    "img": "http://tong.visitkorea.or.kr/cms/resource/09/3369909_image2_1.JPG",
    "cat3": "A02020600"
   },
   {
    "title": "금마저수지",
    "addr": "전북특별자치도 익산시 금마면 고도9길 41-64",
    "lat": 36.001824683,
    "lng": 127.0568399915,
    "img": "http://tong.visitkorea.or.kr/cms/resource/68/3360768_image2_1.JPG",
    "cat3": "A01011800"
   },
   {
    "title": "나바위 성당",
    "addr": "전북특별자치도 익산시 망성면 나바위1길 146",
    "lat": 36.1382803303,
    "lng": 126.999427637,
    "img": "http://tong.visitkorea.or.kr/cms/resource/37/2643537_image2_1.jpg",
    "cat3": "A02010900"
   },
   {
    "title": "남궁찬묘석상",
    "addr": "전북특별자치도 익산시 성당면 목사동길 48",
    "lat": 36.0908455865,
    "lng": 126.9259382367,
    "img": "http://tong.visitkorea.or.kr/cms/resource/69/3564069_image2_1.jpg",
    "cat3": "A02010700"
   },
   {
    "title": "남원사(익산)",
    "addr": "전북특별자치도 익산시 여산면 서촌1길 34-3",
    "lat": 36.0557273173,
    "lng": 127.0827695904,
    "img": "http://tong.visitkorea.or.kr/cms/resource/46/3564246_image2_1.jpg",
    "cat3": "A02010800"
   },
   {
    "title": "남중동 오층 석탑",
    "addr": "전북특별자치도 익산시 익산대로24길 8-5",
    "lat": 35.9454598536,
    "lng": 126.9521452572,
    "img": "http://tong.visitkorea.or.kr/cms/resource/35/3369935_image2_1.JPG",
    "cat3": "A02050200"
   },
   {
    "title": "달빛소리 수목원",
    "addr": "전북특별자치도 익산시 춘포면 천서길 149",
    "lat": 35.9398452252,
    "lng": 127.0330409637,
    "img": "http://tong.visitkorea.or.kr/cms/resource/66/3576166_image2_1.jpg",
    "cat3": "A01010700"
   },
   {
    "title": "두동교회 구본당",
    "addr": "전북특별자치도 익산시 성당면 두동길 17-1",
    "lat": 36.1035690486,
    "lng": 126.9210522283,
    "img": "http://tong.visitkorea.or.kr/cms/resource/84/3564284_image2_1.jpg",
    "cat3": "A02010900"
   },
   {
    "title": "두동편백나무숲",
    "addr": "전북특별자치도 익산시 성당면 두동길 15",
    "lat": 36.1037856971,
    "lng": 126.9214355215,
    "img": "http://tong.visitkorea.or.kr/cms/resource/91/3564291_image2_1.jpg",
    "cat3": "A01010400"
   },
   {
    "title": "두여 정보화마을",
    "addr": "전북특별자치도 익산시 여산면 용기길 66",
    "lat": 36.0767941127,
    "lng": 127.0687202889,
    "img": "http://tong.visitkorea.or.kr/cms/resource/51/3369851_image2_1.JPG",
    "cat3": "A02030100"
   },
   {
    "title": "만경강",
    "addr": "전북특별자치도 익산시 춘포면 천동리",
    "lat": 35.8935110792,
    "lng": 127.001997721,
    "img": "http://tong.visitkorea.or.kr/cms/resource/96/3564396_image2_1.jpg",
    "cat3": "A01011800"
   },
   {
    "title": "망모당",
    "addr": "전북특별자치도 익산시 왕궁면 장중길 105-8",
    "lat": 35.9687652133,
    "lng": 127.0942930747,
    "img": "http://tong.visitkorea.or.kr/cms/resource/61/3587861_image2_1.jpg",
    "cat3": "A02010700"
   },
   {
    "title": "미륵사지 석등하대석",
    "addr": "전북특별자치도 익산시 금마면 기양리 미륵사지내",
    "lat": 36.0111259369,
    "lng": 127.0301643512,
    "img": "http://tong.visitkorea.or.kr/cms/resource/70/3563870_image2_1.jpg",
    "cat3": "A02010700"
   },
   {
    "title": "바람개비 마을",
    "addr": "전북특별자치도 익산시 성당면 성당로 762",
    "lat": 36.1307381717,
    "lng": 126.921387595,
    "img": "http://tong.visitkorea.or.kr/cms/resource/13/3360813_image2_1.JPG",
    "cat3": "A02020600"
   },
   {
    "title": "배산체육공원",
    "addr": "전북특별자치도 익산시 동서로 21 (현영동)",
    "lat": 35.9597552297,
    "lng": 126.9396348894,
    "img": "http://tong.visitkorea.or.kr/cms/resource/65/3065065_image2_1.JPG",
    "cat3": "A02020700"
   },
   {
    "title": "백산서원(익산)",
    "addr": "전북특별자치도 익산시 동서로3길 15",
    "lat": 35.9600303126,
    "lng": 126.9462592914,
    "img": "http://tong.visitkorea.or.kr/cms/resource/64/3360964_image2_1.JPG",
    "cat3": "A02010700"
   },
   {
    "title": "백운사(익산)",
    "addr": "전북특별자치도 익산시 여산면 천호산길 155-23",
    "lat": 36.0434182993,
    "lng": 127.1223247173,
    "img": "http://tong.visitkorea.or.kr/cms/resource/96/3369896_image2_1.JPG",
    "cat3": "A02010800"
   },
   {
    "title": "백제도예원",
    "addr": "전북특별자치도 익산시 하나로 685 (임상동)",
    "lat": 35.9815728503,
    "lng": 126.9780808872,
    "img": "http://tong.visitkorea.or.kr/cms/resource/51/3573551_image2_1.jpg",
    "cat3": "A02030400"
   },
   {
    "title": "백지사터",
    "addr": "전북특별자치도 익산시 여산면 여산리",
    "lat": 36.0590436515,
    "lng": 127.0854164888,
    "img": "http://tong.visitkorea.or.kr/cms/resource/33/3564133_image2_1.jpg",
    "cat3": "A02010900"
   }
  ],
  "foods": [
   {
    "title": "다가포가든",
    "addr": "전북특별자치도 익산시 현영길 40-28 (만석동)",
    "lat": 35.9641352294,
    "lng": 126.9363933977,
    "img": "http://tong.visitkorea.or.kr/cms/resource/78/2851278_image2_1.jpg",
    "cat3": "A05020100"
   },
   {
    "title": "뚜부카페",
    "addr": "전북특별자치도 익산시 금마면 고도9길 23",
    "lat": 35.9980946376,
    "lng": 127.0617285428,
    "img": "http://tong.visitkorea.or.kr/cms/resource/76/3580876_image2_1.jpg",
    "cat3": "A05020100"
   },
   {
    "title": "삼일식당",
    "addr": "전북특별자치도 익산시 중앙로 22-222",
    "lat": 35.9371107392,
    "lng": 126.9483152612,
    "img": "http://tong.visitkorea.or.kr/cms/resource/14/3580814_image2_1.jpg",
    "cat3": "A05020100"
   },
   {
    "title": "시장비빔밥",
    "addr": "전북특별자치도 익산시 황등7길 25 황등시장",
    "lat": 36.0059611671,
    "lng": 126.9452665117,
    "img": "http://tong.visitkorea.or.kr/cms/resource/86/2837886_image2_1.jpg",
    "cat3": "A05020100"
   },
   {
    "title": "원조미륵산순두부",
    "addr": "전북특별자치도 익산시 금마면 미륵사지로 397",
    "lat": 36.0116063357,
    "lng": 127.0242981949,
    "img": "http://tong.visitkorea.or.kr/cms/resource/88/2796188_image2_1.jpg",
    "cat3": "A05020100"
   },
   {
    "title": "익산돈가스",
    "addr": "전북특별자치도 익산시 미륵사지로 220",
    "lat": 36.0044852355,
    "lng": 127.0421578985,
    "img": "http://tong.visitkorea.or.kr/cms/resource/05/2855405_image2_1.jpg",
    "cat3": "A05020300"
   },
   {
    "title": "종가집",
    "addr": "전북특별자치도 익산시 동서로 477 종가집",
    "lat": 35.9521263418,
    "lng": 126.9858170778,
    "img": "http://tong.visitkorea.or.kr/cms/resource/18/2855418_image2_1.jpg",
    "cat3": "A05020100"
   },
   {
    "title": "[백년가게]무진장갈비촌",
    "addr": "전북특별자치도 익산시 선화로31길 58",
    "lat": 35.9506148877,
    "lng": 126.9560281092,
    "img": "http://tong.visitkorea.or.kr/cms/resource/81/3580881_image2_1.jpg",
    "cat3": "A05020100"
   },
   {
    "title": "[백년가게]진미식당",
    "addr": "전북특별자치도 익산시 황등면 황등로 158",
    "lat": 36.0059389404,
    "lng": 126.9448582161,
    "img": "http://tong.visitkorea.or.kr/cms/resource/79/2607979_image2_1.jpg",
    "cat3": "A05020100"
   },
   {
    "title": "굴딴지",
    "addr": "전북특별자치도 익산시 평동로 764",
    "lat": 35.9273759846,
    "lng": 126.962617017,
    "img": "",
    "cat3": "A05020100"
   },
   {
    "title": "다미일식",
    "addr": "전북특별자치도 익산시 무왕로23길 5",
    "lat": 35.9600227082,
    "lng": 126.9884138618,
    "img": "",
    "cat3": "A05020300"
   },
   {
    "title": "동보성",
    "addr": "전북특별자치도 익산시 하나로 437 (영등동)",
    "lat": 35.9594643123,
    "lng": 126.9810839747,
    "img": "",
    "cat3": "A05020400"
   },
   {
    "title": "물머리집",
    "addr": "전북특별자치도 익산시 금마면 고도1길 56-5",
    "lat": 35.997777868,
    "lng": 127.0537070445,
    "img": "",
    "cat3": "A05020100"
   },
   {
    "title": "산정호수가든",
    "addr": "전북특별자치도 익산시 웅포면 백제로 476-6",
    "lat": 36.081524127,
    "lng": 126.9084622659,
    "img": "",
    "cat3": "A05020100"
   },
   {
    "title": "샘골가든",
    "addr": "전북특별자치도 익산시 함라면 백제로 622-6",
    "lat": 36.0705393568,
    "lng": 126.9134621069,
    "img": "",
    "cat3": "A05020100"
   }
  ],
  "cafes": [
   {
    "title": "메이드인헤븐",
    "addr": "전북특별자치도 익산시 하나로 864-22",
    "lat": 35.9978460077,
    "lng": 126.9788637244,
    "img": "http://tong.visitkorea.or.kr/cms/resource/18/2850818_image2_1.jpg",
    "cat3": "A05020900"
   },
   {
    "title": "카페 덕기",
    "addr": "전북특별자치도 익산시 덕기1길 104 (덕기동)",
    "lat": 35.971214088,
    "lng": 127.045522361,
    "img": "http://tong.visitkorea.or.kr/cms/resource/35/3041435_image2_1.jpg",
    "cat3": "A05020900"
   },
   {
    "title": "카페 라이즈",
    "addr": "전북특별자치도 익산시 서동로27길 84",
    "lat": 35.9484824294,
    "lng": 126.9925415727,
    "img": "http://tong.visitkorea.or.kr/cms/resource/79/2837379_image2_1.jpg",
    "cat3": "A05020900"
   },
   {
    "title": "풍성제과",
    "addr": "전북특별자치도 익산시 서동로 103 풍성제과마동지점",
    "lat": 35.9344001854,
    "lng": 126.962686272,
    "img": "http://tong.visitkorea.or.kr/cms/resource/52/2839252_image2_1.jpg",
    "cat3": "A05020900"
   },
   {
    "title": "함라정원",
    "addr": "전북특별자치도 익산시 함라면 신대진등길 91",
    "lat": 36.0496889526,
    "lng": 126.9130126938,
    "img": "http://tong.visitkorea.or.kr/cms/resource/30/2783630_image2_1.jpg",
    "cat3": "A05020900"
   }
  ],
  "culture": [
   {
    "title": "가람문학관",
    "addr": "전북특별자치도 익산시 가람1길 76 가람문학관",
    "lat": 36.0353602265,
    "lng": 127.0844949735,
    "img": "http://tong.visitkorea.or.kr/cms/resource/62/2994662_image2_1.jpg",
    "cat3": "A02060200"
   },
   {
    "title": "마동도서관",
    "addr": "전북특별자치도 익산시 선화1로 99 (마동)",
    "lat": 35.9398413415,
    "lng": 126.9690550056,
    "img": "http://tong.visitkorea.or.kr/cms/resource/34/3573534_image2_1.jpg",
    "cat3": "A02060900"
   },
   {
    "title": "마한박물관",
    "addr": "전북특별자치도 익산시 금마면 고도9길 41-14",
    "lat": 36.0019413977,
    "lng": 127.0604063368,
    "img": "http://tong.visitkorea.or.kr/cms/resource/08/3573508_image2_1.jpg",
    "cat3": "A02060100"
   },
   {
    "title": "보석박물관",
    "addr": "전북특별자치도 익산시 왕궁면 호반로 8",
    "lat": 35.9907045238,
    "lng": 127.102605645,
    "img": "http://tong.visitkorea.or.kr/cms/resource/06/1908906_image2_1.JPG",
    "cat3": "A02060100"
   },
   {
    "title": "원광대학교 박물관",
    "addr": "전북특별자치도 익산시 익산대로 460",
    "lat": 35.967818477,
    "lng": 126.9557276866,
    "img": "http://tong.visitkorea.or.kr/cms/resource/24/3573724_image2_1.jpg",
    "cat3": "A02060100"
   },
   {
    "title": "원불교역사박물관",
    "addr": "전북특별자치도 익산시 익산대로 501",
    "lat": 35.9744537602,
    "lng": 126.9516167691,
    "img": "http://tong.visitkorea.or.kr/cms/resource/36/3361036_image2_1.JPG",
    "cat3": "A02060100"
   },
   {
    "title": "익산국악원",
    "addr": "전북특별자치도 익산시 평동로9길 66-3 (갈산동)",
    "lat": 35.9375163034,
    "lng": 126.9514983,
    "img": "http://tong.visitkorea.or.kr/cms/resource/96/3371696_image2_1.JPG",
    "cat3": "A02061100"
   },
   {
    "title": "익산문화원",
    "addr": "전북특별자치도 익산시 선화로 529",
    "lat": 35.9484962424,
    "lng": 126.9882586217,
    "img": "http://tong.visitkorea.or.kr/cms/resource/29/3576129_image2_1.jpg",
    "cat3": "A02060700"
   }
  ],
  "shopping": [
   {
    "title": "금마시장",
    "addr": "전북특별자치도 익산시 금마면 고도길 58",
    "lat": 35.9923590377,
    "lng": 127.0535210924,
    "img": "http://tong.visitkorea.or.kr/cms/resource/41/3585541_image2_1.jpg",
    "cat3": "A04010100"
   },
   {
    "title": "여산장(1, 6일)",
    "addr": "전북특별자치도 익산시 여산면 서촌2길 21",
    "lat": 36.0587214304,
    "lng": 127.0833694578,
    "img": "http://tong.visitkorea.or.kr/cms/resource/32/1976632_image2_1.jpg",
    "cat3": "A04010100"
   },
   {
    "title": "익산 중앙시장",
    "addr": "전북특별자치도 익산시 중앙로3길 27",
    "lat": 35.9421046392,
    "lng": 126.9497483364,
    "img": "http://tong.visitkorea.or.kr/cms/resource/68/2796768_image2_1.jpg",
    "cat3": "A04010200"
   },
   {
    "title": "주얼팰리스",
    "addr": "전북특별자치도 익산시 왕궁면 호반로 8",
    "lat": 35.9911739189,
    "lng": 127.1028389452,
    "img": "http://tong.visitkorea.or.kr/cms/resource/96/3562596_image2_1.jpg",
    "cat3": "A04010600"
   },
   {
    "title": "함열시장",
    "addr": "전북특별자치도 익산시 함열읍 와리2길 8",
    "lat": 36.0808611801,
    "lng": 126.9585216969,
    "img": "http://tong.visitkorea.or.kr/cms/resource/73/3585473_image2_1.jpg",
    "cat3": "A04010100"
   }
  ],
  "leports": [
   {
    "title": "백제캠핑장",
    "addr": "전북특별자치도 익산시 금마면 도천길 131-20",
    "lat": 36.0125594777,
    "lng": 127.0515818454,
    "img": "http://tong.visitkorea.or.kr/cms/resource/99/2735899_image2_1.jpg",
    "cat3": "A03021700"
   },
   {
    "title": "성당포구금강체험관야영장",
    "addr": "전북특별자치도 익산시 성당면 성당로 762",
    "lat": 36.1312880978,
    "lng": 126.9207570818,
    "img": "http://tong.visitkorea.or.kr/cms/resource/53/2750053_image2_1.jpg",
    "cat3": "A03021700"
   },
   {
    "title": "익산시 국민생활관",
    "addr": "전북특별자치도 익산시 선화로 255",
    "lat": 35.9455016216,
    "lng": 126.9583308152,
    "img": "http://tong.visitkorea.or.kr/cms/resource/08/3061408_image2_1.jpg",
    "cat3": "A03020200"
   },
   {
    "title": "익산시여성회관",
    "addr": "전북특별자치도 익산시 배산로 193-9 (모현동2가)",
    "lat": 35.9550085798,
    "lng": 126.9414376306,
    "img": "http://tong.visitkorea.or.kr/cms/resource/40/3576140_image2_1.jpg",
    "cat3": "A03020200"
   },
   {
    "title": "[익산 둘레길] 함라산길",
    "addr": "전북특별자치도 익산시 함라면 수동길 8",
    "lat": 36.0610737223,
    "lng": 126.9106487184,
    "img": "http://tong.visitkorea.or.kr/cms/resource/58/3578358_image2_1.jpg",
    "cat3": "A03022700"
   }
  ],
  "stays": [
   {
    "title": "금마관",
    "addr": "전북특별자치도 익산시 금마면 고도8길 3",
    "lat": 35.9963447951,
    "lng": 127.059295472,
    "img": "http://tong.visitkorea.or.kr/cms/resource/67/2573367_image2_1.jpg",
    "cat3": "B02011600"
   },
   {
    "title": "익산유스호스텔",
    "addr": "전북특별자치도 익산시 마한로 11",
    "lat": 35.9658466444,
    "lng": 126.9653018835,
    "img": "http://tong.visitkorea.or.kr/cms/resource/20/3592120_image2_1.jpg",
    "cat3": "B02010600"
   },
   {
    "title": "미륵산자연학교",
    "addr": "전북특별자치도 익산시 삼기면 죽청길 46-60",
    "lat": 36.0322899906,
    "lng": 127.0187537023,
    "img": "",
    "cat3": "B02010700"
   },
   {
    "title": "함라한옥체험단지",
    "addr": "전북특별자치도 익산시 함라면 함라교동길 25",
    "lat": 36.0627735156,
    "lng": 126.9098737429,
    "img": "",
    "cat3": "B02011600"
   }
  ],
  "festivals": [
   {
    "title": "2025 홀로그램 엑스포 - HOLO WAVE",
    "addr": "전북특별자치도 익산시 익산대로 460 (신동)",
    "lat": 35.9670185276,
    "lng": 126.9533945826,
    "img": "http://tong.visitkorea.or.kr/cms/resource/96/3565396_image2_1.png",
    "cat3": "A02081300",
    "tel": "063-252-0048",
    "start": "20251120",
    "end": "20251122",
    "scope": "sigungu",
    "status": "annual"
   },
   {
    "title": "보물찾기 축제 - 금괴를 찾아라 !",
    "addr": "전북특별자치도 익산시 인북로12길 28 (주현동)",
    "lat": 35.9335834631,
    "lng": 126.9541092806,
    "img": "http://tong.visitkorea.or.kr/cms/resource/91/3536391_image2_1.jpg",
    "cat3": "A02070200",
    "tel": "070-4116-7828",
    "start": "20251101",
    "end": "20251102",
    "scope": "sigungu",
    "status": "annual"
   },
   {
    "title": "익산천만송이 국화축제",
    "addr": "전북특별자치도 익산시 하나로 322 (어양동)",
    "lat": 35.9492655338,
    "lng": 126.9844672731,
    "img": "http://tong.visitkorea.or.kr/cms/resource/75/3542875_image2_1.jpg",
    "cat3": "A02070200",
    "tel": "063-859-4977",
    "start": "20251024",
    "end": "20251102",
    "scope": "sigungu",
    "status": "annual"
   },
   {
    "title": "익산마한문화대전",
    "addr": "전북특별자치도 익산시 금마면 고도9길 41-14",
    "lat": 36.0006415547,
    "lng": 127.0609146595,
    "img": "http://tong.visitkorea.or.kr/cms/resource/13/3546713_image2_1.jpg",
    "cat3": "A02070200",
    "tel": "1577-0072 익산시 민원콜센터",
    "start": "20251003",
    "end": "20251005",
    "scope": "sigungu",
    "status": "annual"
   },
   {
    "title": "NS푸드페스타",
    "addr": "전북특별자치도 익산시 함열읍 익산대로78길 137",
    "lat": 36.0314029894,
    "lng": 126.9615032843,
    "img": "http://tong.visitkorea.or.kr/cms/resource/21/3578421_image2_1.jpg",
    "cat3": "A02070200",
    "tel": "02-574-1753",
    "start": "20250926",
    "end": "20250927",
    "scope": "sigungu",
    "status": "annual"
   },
   {
    "title": "전북특별자치도 청년축제",
    "addr": "전북특별자치도 익산시 하나로 322 (어양동)",
    "lat": 35.9492655338,
    "lng": 126.9844672731,
    "img": "http://tong.visitkorea.or.kr/cms/resource/88/3547488_image2_1.JPG",
    "cat3": "A02070200",
    "tel": "063-227-2030",
    "start": "20250919",
    "end": "20250920",
    "scope": "sigungu",
    "status": "annual"
   }
  ],
  "heritage_mapped": 65
 },
 {
  "region": "경기도 여주시",
  "sido": "경기",
  "sigungu": "여주시",
  "theme": "문화유산형",
  "segment": "숨은매력지(문화유산형)",
  "composite": 1.54,
  "hidden_score": 2.24,
  "heritage": 75,
  "axes": {
   "visit": 3.3,
   "attract": 1.0,
   "connect": 0.3
  },
  "lat": 37.300896,
  "lng": 127.615978,
  "spots": [
   {
    "title": "가남체육공원",
    "addr": "경기도 여주시 가남읍 대명산길 98",
    "lat": 37.2017093544,
    "lng": 127.5349142281,
    "img": "http://tong.visitkorea.or.kr/cms/resource/71/2777971_image2_1.jpg",
    "cat3": "A02020700"
   },
   {
    "title": "강한사",
    "addr": "경기도 여주시 청심로 113 (하동)",
    "lat": 37.2991248935,
    "lng": 127.6331386778,
    "img": "http://tong.visitkorea.or.kr/cms/resource/15/3060415_image2_1.jpg",
    "cat3": "A02010700"
   },
   {
    "title": "금은모래강변공원",
    "addr": "경기도 여주시 강변유원지길 164 (연양동)",
    "lat": 37.2895100517,
    "lng": 127.6720298839,
    "img": "http://tong.visitkorea.or.kr/cms/resource/63/3540463_image2_1.jpg",
    "cat3": "A02020700"
   },
   {
    "title": "기천서원지",
    "addr": "경기도 여주시 금사면 뒷머리길 11",
    "lat": 37.3926482918,
    "lng": 127.5297120148,
    "img": "http://tong.visitkorea.or.kr/cms/resource/14/3040614_image2_1.jpg",
    "cat3": "A02010700"
   },
   {
    "title": "당남리섬",
    "addr": "경기도 여주시 대신면 천서리",
    "lat": 37.3947510587,
    "lng": 127.5424191369,
    "img": "http://tong.visitkorea.or.kr/cms/resource/61/3540461_image2_1.jpg",
    "cat3": "A01011300"
   },
   {
    "title": "당남지구공원",
    "addr": "경기도 여주시 대신면 여양로 1935-69",
    "lat": 37.3936374068,
    "lng": 127.5483019696,
    "img": "http://tong.visitkorea.or.kr/cms/resource/24/3587224_image2_1.jpg",
    "cat3": "A02020700"
   },
   {
    "title": "대법사(여주)",
    "addr": "경기도 여주시 가남읍 안금3길 3-43",
    "lat": 37.2285297562,
    "lng": 127.6048821432,
    "img": "http://tong.visitkorea.or.kr/cms/resource/10/3060410_image2_1.jpg",
    "cat3": "A02010800"
   },
   {
    "title": "루덴시아",
    "addr": "경기도 여주시 산북면 금품1로 177",
    "lat": 37.4014793559,
    "lng": 127.461481831,
    "img": "http://tong.visitkorea.or.kr/cms/resource/86/3038386_image2_1.jpg",
    "cat3": "A02020600"
   },
   {
    "title": "매산서원",
    "addr": "경기도 여주시 능서면 능서로 94-8",
    "lat": 37.306406346,
    "lng": 127.5764019316,
    "img": "http://tong.visitkorea.or.kr/cms/resource/82/3382182_image2_1.jpg",
    "cat3": "A02010700"
   },
   {
    "title": "봉서정",
    "addr": "경기도 여주시 금사면 이포리",
    "lat": 37.3986531905,
    "lng": 127.5318172071,
    "img": "http://tong.visitkorea.or.kr/cms/resource/25/3060425_image2_1.jpg",
    "cat3": "A02010700"
   },
   {
    "title": "북내체육공원",
    "addr": "경기도 여주시 북내면 금당로 260-3",
    "lat": 37.3364519509,
    "lng": 127.6776419141,
    "img": "http://tong.visitkorea.or.kr/cms/resource/46/3002846_image2_1.JPG",
    "cat3": "A02020700"
   },
   {
    "title": "사슴마을",
    "addr": "경기도 여주시 금사면 장흥로 94",
    "lat": 37.3754853622,
    "lng": 127.4734537141,
    "img": "http://tong.visitkorea.or.kr/cms/resource/63/3382163_image2_1.jpg",
    "cat3": "A02030100"
   },
   {
    "title": "신륵사관광지",
    "addr": "경기도 여주시 신륵사길 73 (천송동)",
    "lat": 37.2972478204,
    "lng": 127.6596974425,
    "img": "http://tong.visitkorea.or.kr/cms/resource/35/3078435_image2_1.jpg",
    "cat3": "A02020200"
   },
   {
    "title": "양섬",
    "addr": "경기도 여주시 여주북로 238 (하동)",
    "lat": 37.3054405896,
    "lng": 127.6200230151,
    "img": "http://tong.visitkorea.or.kr/cms/resource/43/3539743_image2_1.jpg",
    "cat3": "A01011300"
   },
   {
    "title": "여주 고달사지",
    "addr": "경기도 여주시 북내면 상교리",
    "lat": 37.3931533064,
    "lng": 127.6548201195,
    "img": "http://tong.visitkorea.or.kr/cms/resource/17/3079017_image2_1.jpg",
    "cat3": "A02010700"
   },
   {
    "title": "여주 늘향골마을",
    "addr": "경기도 여주시 점동면 도리길 152",
    "lat": 37.2234960729,
    "lng": 127.7056981853,
    "img": "http://tong.visitkorea.or.kr/cms/resource/21/3382221_image2_1.jpg",
    "cat3": "A02030100"
   },
   {
    "title": "여주 서화마을",
    "addr": "경기도 여주시 북내면 서원2길 40",
    "lat": 37.3995700166,
    "lng": 127.6975438463,
    "img": "http://tong.visitkorea.or.kr/cms/resource/03/3382203_image2_1.jpg",
    "cat3": "A02030100"
   },
   {
    "title": "여주 양화나루",
    "addr": "경기도 여주시 세종대왕면 내양리",
    "lat": 37.3541507621,
    "lng": 127.573017534,
    "img": "http://tong.visitkorea.or.kr/cms/resource/65/3060365_image2_1.jpg",
    "cat3": "A01011800"
   },
   {
    "title": "여주 오감도토리마을",
    "addr": "경기도 여주시 강천면 강천로 776",
    "lat": 37.2676684694,
    "lng": 127.6904371833,
    "img": "http://tong.visitkorea.or.kr/cms/resource/03/3382103_image2_1.jpg",
    "cat3": "A02030100"
   },
   {
    "title": "여주 이포나루",
    "addr": "경기도 여주시 금사면 이포로 39",
    "lat": 37.4013473811,
    "lng": 127.5349807321,
    "img": "http://tong.visitkorea.or.kr/cms/resource/62/3060362_image2_1.jpg",
    "cat3": "A01011800"
   }
  ],
  "foods": [
   {
    "title": "가래울해장국",
    "addr": "경기도 여주시 점동면 가래울길 29",
    "lat": 37.2051837464,
    "lng": 127.6756069815,
    "img": "http://tong.visitkorea.or.kr/cms/resource/93/2768293_image2_1.jpg",
    "cat3": "A05020100"
   },
   {
    "title": "감성식탁",
    "addr": "경기도 여주시 칠산길 39 (상동)",
    "lat": 37.289109595,
    "lng": 127.6446101509,
    "img": "http://tong.visitkorea.or.kr/cms/resource/38/2781838_image2_1.jpeg",
    "cat3": "A05020100"
   },
   {
    "title": "강천 매운탕",
    "addr": "경기도 여주시 강천면 강천리길 85",
    "lat": 37.234747611,
    "lng": 127.7089503462,
    "img": "http://tong.visitkorea.or.kr/cms/resource/34/2863334_image2_1.jpg",
    "cat3": "A05020100"
   },
   {
    "title": "경기순대국",
    "addr": "경기도 여주시 가남읍 삼군2길 27",
    "lat": 37.2223157471,
    "lng": 127.5590309069,
    "img": "http://tong.visitkorea.or.kr/cms/resource/24/2845924_image2_1.jpeg",
    "cat3": "A05020100"
   },
   {
    "title": "국민해장국",
    "addr": "경기도 여주시 가남읍 가남로 94",
    "lat": 37.2218437285,
    "lng": 127.567196849,
    "img": "http://tong.visitkorea.or.kr/cms/resource/08/2862708_image2_1.jpg",
    "cat3": "A05020100"
   },
   {
    "title": "그늘집",
    "addr": "경기도 여주시 가남읍 본두3길 91",
    "lat": 37.2399252794,
    "lng": 127.5839725949,
    "img": "http://tong.visitkorea.or.kr/cms/resource/11/2760111_image2_1.jpeg",
    "cat3": "A05020100"
   },
   {
    "title": "길조식당",
    "addr": "경기도 여주시 당전로 5",
    "lat": 37.3276391543,
    "lng": 127.6816362515,
    "img": "http://tong.visitkorea.or.kr/cms/resource/38/2862738_image2_1.jpg",
    "cat3": "A05020100"
   },
   {
    "title": "남도밥상",
    "addr": "경기도 여주시 장여로 1626 (삼교동)",
    "lat": 37.2423207081,
    "lng": 127.6528940786,
    "img": "http://tong.visitkorea.or.kr/cms/resource/16/2768316_image2_1.jpg",
    "cat3": "A05020100"
   },
   {
    "title": "남여주배추된장국",
    "addr": "경기도 여주시 가남읍 가남로 151",
    "lat": 37.223277005,
    "lng": 127.5731546031,
    "img": "http://tong.visitkorea.or.kr/cms/resource/75/2781875_image2_1.jpeg",
    "cat3": "A05020100"
   },
   {
    "title": "대신식당",
    "addr": "경기도 여주시 명품로 112",
    "lat": 37.250724999,
    "lng": 127.6368230673,
    "img": "http://tong.visitkorea.or.kr/cms/resource/09/2873209_image2_1.jpg",
    "cat3": "A05020100"
   },
   {
    "title": "도깨비정원",
    "addr": "경기도 여주시 강천면 부평로 407",
    "lat": 37.2882141906,
    "lng": 127.7379184147,
    "img": "http://tong.visitkorea.or.kr/cms/resource/13/2863313_image2_1.jpg",
    "cat3": "A05020100"
   },
   {
    "title": "동네막국수",
    "addr": "경기도 여주시 현암3길 28 (현암동)",
    "lat": 37.3099793385,
    "lng": 127.6410015435,
    "img": "http://tong.visitkorea.or.kr/cms/resource/61/2893261_image2_1.jpg",
    "cat3": "A05020100"
   },
   {
    "title": "두부고을해마루",
    "addr": "경기도 여주시 북내면 당전로 113",
    "lat": 37.3321249045,
    "lng": 127.6901936817,
    "img": "http://tong.visitkorea.or.kr/cms/resource/47/2834447_image2_1.jpg",
    "cat3": "A05020100"
   },
   {
    "title": "들꽃가든 한정식",
    "addr": "경기도 여주시 강천면 부평로 283",
    "lat": 37.2776404544,
    "lng": 127.7402268443,
    "img": "http://tong.visitkorea.or.kr/cms/resource/72/2840772_image2_1.jpg",
    "cat3": "A05020100"
   },
   {
    "title": "만우 정육점 식당",
    "addr": "경기도 여주시 가남읍 태평로 68",
    "lat": 37.2058534785,
    "lng": 127.5436022147,
    "img": "http://tong.visitkorea.or.kr/cms/resource/42/2768342_image2_1.jpg",
    "cat3": "A05020100"
   }
  ],
  "cafes": [
   {
    "title": "로프",
    "addr": "경기도 여주시 가남읍 가남로 270-6",
    "lat": 37.2149753386,
    "lng": 127.5815263063,
    "img": "http://tong.visitkorea.or.kr/cms/resource/64/2873164_image2_1.jpg",
    "cat3": "A05020900"
   },
   {
    "title": "메이킷 커피",
    "addr": "경기도 여주시 산북면 주어로 122-1",
    "lat": 37.411494346,
    "lng": 127.4331313363,
    "img": "http://tong.visitkorea.or.kr/cms/resource/71/2893271_image2_1.jpg",
    "cat3": "A05020900"
   },
   {
    "title": "무이숲",
    "addr": "경기도 여주시 도예로 247",
    "lat": 37.3190008219,
    "lng": 127.6575470116,
    "img": "http://tong.visitkorea.or.kr/cms/resource/21/2873121_image2_1.jpg",
    "cat3": "A05020900"
   },
   {
    "title": "바하리야",
    "addr": "경기도 여주시 점봉길 43 (점봉동)",
    "lat": 37.2510334384,
    "lng": 127.6446084666,
    "img": "http://tong.visitkorea.or.kr/cms/resource/52/2863752_image2_1.jpeg",
    "cat3": "A05020900"
   }
  ],
  "culture": [
   {
    "title": "목아박물관",
    "addr": "경기도 여주시 강천면 이문안길 21",
    "lat": 37.2878049845,
    "lng": 127.6878868338,
    "img": "http://tong.visitkorea.or.kr/cms/resource/03/3540503_image2_1.jpg",
    "cat3": "A02060100"
   },
   {
    "title": "세종대왕 역사문화관",
    "addr": "경기도 여주시 능서면 영릉로 269-10",
    "lat": 37.304984928,
    "lng": 127.6113515895,
    "img": "http://tong.visitkorea.or.kr/cms/resource/17/3573817_image2_1.jpg",
    "cat3": "A02060300"
   },
   {
    "title": "여성생활사박물관",
    "addr": "경기도 여주시 강천면 강천로 324-20",
    "lat": 37.2433716017,
    "lng": 127.7082029441,
    "img": "http://tong.visitkorea.or.kr/cms/resource/36/3563636_image2_1.jpg",
    "cat3": "A02060100"
   },
   {
    "title": "여주대신도서관",
    "addr": "경기도 여주시 대신면 율촌1길 12-10",
    "lat": 37.3715211845,
    "lng": 127.5844771087,
    "img": "http://tong.visitkorea.or.kr/cms/resource/15/3454515_image2_1.jpg",
    "cat3": "A02060900"
   },
   {
    "title": "여주문화원",
    "addr": "경기도 여주시 신륵사길 6-6 (천송동)",
    "lat": 37.3002362289,
    "lng": 127.6523702412,
    "img": "http://tong.visitkorea.or.kr/cms/resource/42/3048042_image2_1.jpg",
    "cat3": "A02060700"
   },
   {
    "title": "여주미술관",
    "addr": "경기도 여주시 세종로 394-36",
    "lat": 37.264845597,
    "lng": 127.6372142937,
    "img": "http://tong.visitkorea.or.kr/cms/resource/84/2765684_image2_1.jpeg",
    "cat3": "A02060500"
   },
   {
    "title": "여주시립폰박물관",
    "addr": "경기도 여주시 강변유원지길 105 (연양동)",
    "lat": 37.2933622985,
    "lng": 127.6673579734,
    "img": "http://tong.visitkorea.or.kr/cms/resource/27/3541727_image2_1.jpg",
    "cat3": "A02060100"
   },
   {
    "title": "금사도서관",
    "addr": "경기도 여주시 흥천면 이여로 1278-2",
    "lat": 37.3884072056,
    "lng": 127.5345978054,
    "img": "",
    "cat3": "A02060900"
   }
  ],
  "shopping": [
   {
    "title": "여주장 (5, 10일)",
    "addr": "경기도 여주시 여흥로11번길 53",
    "lat": 37.2991804007,
    "lng": 127.6308388846,
    "img": "http://tong.visitkorea.or.kr/cms/resource/14/3382214_image2_1.jpg",
    "cat3": "A04010100"
   }
  ],
  "leports": [
   {
    "title": "금은모래캠핑장",
    "addr": "경기도 여주시 강변유원지길 105 (연양동)",
    "lat": 37.2933622985,
    "lng": 127.6673579734,
    "img": "http://tong.visitkorea.or.kr/cms/resource/19/2736019_image2_1.jpg",
    "cat3": "A03021700"
   },
   {
    "title": "남여주GC(남여주골프클럽)",
    "addr": "경기도 여주시 가여로 532 (하거동)",
    "lat": 37.22829692,
    "lng": 127.630621492,
    "img": "http://tong.visitkorea.or.kr/cms/resource/51/2764951_image2_1.jpeg",
    "cat3": "A03020700"
   },
   {
    "title": "도리수상레저",
    "addr": "경기도 여주시 점동면 도리",
    "lat": 37.2283511106,
    "lng": 127.7080200588,
    "img": "http://tong.visitkorea.or.kr/cms/resource/88/2781888_image2_1.jpeg",
    "cat3": "A03030100"
   },
   {
    "title": "두리캠핑장",
    "addr": "경기도 여주시 흥천면 이여로 778-10",
    "lat": 37.3543911948,
    "lng": 127.5070596079,
    "img": "http://tong.visitkorea.or.kr/cms/resource/14/2798114_image2_1.jpg",
    "cat3": "A03021700"
   },
   {
    "title": "블루마린 오토캠핑장",
    "addr": "경기도 여주시 세종대왕면 중부대로 2545-74",
    "lat": 37.3022652608,
    "lng": 127.5819959889,
    "img": "http://tong.visitkorea.or.kr/cms/resource/55/2727655_image2_1.jpg",
    "cat3": "A03021700"
   },
   {
    "title": "빅토리아 골프클럽",
    "addr": "경기도 여주시 가남읍 송삼로 191",
    "lat": 37.1790665545,
    "lng": 127.6339448215,
    "img": "http://tong.visitkorea.or.kr/cms/resource/64/2760164_image2_1.jpeg",
    "cat3": "A03020700"
   },
   {
    "title": "소피아그린 컨트리클럽",
    "addr": "경기도 여주시 점동면 소피아그린길 84",
    "lat": 37.1718214043,
    "lng": 127.70146116,
    "img": "http://tong.visitkorea.or.kr/cms/resource/62/2765762_image2_1.jpeg",
    "cat3": "A03020700"
   },
   {
    "title": "썬밸리워터파크",
    "addr": "경기도 여주시 강변유원지길 45 (연양동)",
    "lat": 37.2931427643,
    "lng": 127.6610696584,
    "img": "http://tong.visitkorea.or.kr/cms/resource/27/2766827_image2_1.jpg",
    "cat3": "A03030700"
   },
   {
    "title": "아리지CC",
    "addr": "경기도 여주시 가남읍 아리지그린길 68",
    "lat": 37.214525609,
    "lng": 127.5934724628,
    "img": "http://tong.visitkorea.or.kr/cms/resource/29/2765729_image2_1.jpeg",
    "cat3": "A03020700"
   },
   {
    "title": "어우실낚시터",
    "addr": "경기도 여주시 점동면 어우실길 65",
    "lat": 37.1519867855,
    "lng": 127.6579600946,
    "img": "http://tong.visitkorea.or.kr/cms/resource/42/2766842_image2_1.jpg",
    "cat3": "A03030500"
   }
  ],
  "stays": [
   {
    "title": "썬밸리호텔",
    "addr": "경기도 여주시 강변유원지길 45 (연양동)",
    "lat": 37.2931427643,
    "lng": 127.6610696584,
    "img": "http://tong.visitkorea.or.kr/cms/resource/86/3562486_image2_1.jpg",
    "cat3": "B02010100"
   }
  ],
  "festivals": [
   {
    "title": "2025 한글날 문화행사",
    "addr": "경기도 여주시 세종대왕면 영릉로 269-10",
    "lat": 37.3048294176,
    "lng": 127.6128375714,
    "img": "http://tong.visitkorea.or.kr/cms/resource/27/3540327_image2_1.jpg",
    "cat3": "A02081300",
    "tel": "031-881-9692, 9740",
    "start": "20251009",
    "end": "20251009",
    "scope": "sigungu",
    "status": "annual"
   },
   {
    "title": "북내 금당천 삼색별미축제",
    "addr": "경기도 여주시 북내면 당우리",
    "lat": 37.3277002492,
    "lng": 127.681122407,
    "img": "http://tong.visitkorea.or.kr/cms/resource/56/3568656_image2_1.jpg",
    "cat3": "A02070200",
    "tel": "031-887-3483",
    "start": "20250926",
    "end": "20250927",
    "scope": "sigungu",
    "status": "annual"
   }
  ],
  "heritage_mapped": 54
 },
 {
  "region": "경상남도 진주시",
  "sido": "경남",
  "sigungu": "진주시",
  "theme": "문화유산형",
  "segment": "숨은매력지(문화유산형)",
  "composite": 0.81,
  "hidden_score": 2.16,
  "heritage": 274,
  "axes": {
   "visit": 1.8,
   "attract": 0.4,
   "connect": 0.3
  },
  "lat": 35.184166,
  "lng": 128.120755,
  "spots": [
   {
    "title": "가뫼골마을",
    "addr": "경상남도 진주시 명석면 관덕길 174",
    "lat": 35.258656593,
    "lng": 128.0324121006,
    "img": "http://tong.visitkorea.or.kr/cms/resource/69/3538169_image2_1.jpg",
    "cat3": "A02030100"
   },
   {
    "title": "가호서원",
    "addr": "경상남도 진주시 이반성면 용암길 59-2",
    "lat": 35.1664473205,
    "lng": 128.3325771223,
    "img": "http://tong.visitkorea.or.kr/cms/resource/23/3040823_image2_1.jpg",
    "cat3": "A02010700"
   },
   {
    "title": "경상남도수목원",
    "addr": "경상남도 진주시 이반성면 수목원로 386",
    "lat": 35.1627970884,
    "lng": 128.2967442443,
    "img": "http://tong.visitkorea.or.kr/cms/resource/56/3538856_image2_1.jpg",
    "cat3": "A01010700"
   },
   {
    "title": "광제서원",
    "addr": "경상남도 진주시 명석면 광제산로685번길 116",
    "lat": 35.275407461,
    "lng": 128.0310951072,
    "img": "http://tong.visitkorea.or.kr/cms/resource/50/3349350_image2_1.jpg",
    "cat3": "A02010700"
   },
   {
    "title": "금호못유원지",
    "addr": "경상남도 진주시 금산면 금산순환로587번길 10-6",
    "lat": 35.2144859553,
    "lng": 128.1543220165,
    "img": "http://tong.visitkorea.or.kr/cms/resource/83/3349383_image2_1.jpg",
    "cat3": "A02020700"
   },
   {
    "title": "금호지",
    "addr": "경상남도 진주시 금산면 금산순환로587번길",
    "lat": 35.2076617092,
    "lng": 128.15355282,
    "img": "http://tong.visitkorea.or.kr/cms/resource/60/3451260_image2_1.jpg",
    "cat3": "A01011800"
   },
   {
    "title": "남가람공원",
    "addr": "경상남도 진주시 강남로 320",
    "lat": 35.1872460687,
    "lng": 128.0821985047,
    "img": "http://tong.visitkorea.or.kr/cms/resource/41/2894541_image2_1.jpg",
    "cat3": "A02020700"
   },
   {
    "title": "남강댐 노을공원",
    "addr": "경상남도 진주시 내동면 삼계로 453",
    "lat": 35.1612758486,
    "lng": 128.0304287282,
    "img": "http://tong.visitkorea.or.kr/cms/resource/41/3377041_image2_1.JPG",
    "cat3": "A02020700"
   },
   {
    "title": "남강댐 물 문화관",
    "addr": "경상남도 진주시 내동면 삼계로 455-46",
    "lat": 35.1625312622,
    "lng": 128.0303759225,
    "img": "http://tong.visitkorea.or.kr/cms/resource/87/3375387_image2_1.JPG",
    "cat3": "A02040800"
   },
   {
    "title": "남악서원",
    "addr": "경상남도 진주시 금곡면 죽곡길 102",
    "lat": 35.0763157913,
    "lng": 128.1779263737,
    "img": "http://tong.visitkorea.or.kr/cms/resource/22/3040222_image2_1.jpg",
    "cat3": "A02010700"
   },
   {
    "title": "대각서원",
    "addr": "경상남도 진주시 수곡면 대각길 104-21",
    "lat": 35.2234863916,
    "lng": 127.9229670818,
    "img": "http://tong.visitkorea.or.kr/cms/resource/86/3050086_image2_1.jpg",
    "cat3": "A02010700"
   },
   {
    "title": "두방사(두방암)",
    "addr": "경상남도 진주시 문산읍 동부로781번길 267",
    "lat": 35.1881173659,
    "lng": 128.1917472121,
    "img": "http://tong.visitkorea.or.kr/cms/resource/05/3040805_image2_1.jpg",
    "cat3": "A02010800"
   },
   {
    "title": "물초울공원",
    "addr": "경상남도 진주시 충무공동 183",
    "lat": 35.1829948991,
    "lng": 128.1457513788,
    "img": "http://tong.visitkorea.or.kr/cms/resource/51/2894551_image2_1.jpg",
    "cat3": "A01010500"
   },
   {
    "title": "밀알영농조합",
    "addr": "경상남도 진주시 죽곡길 7",
    "lat": 35.0817097701,
    "lng": 128.1857894328,
    "img": "http://tong.visitkorea.or.kr/cms/resource/70/2817570_image2_1.JPG",
    "cat3": "A02030400"
   },
   {
    "title": "성전암(진주)",
    "addr": "경상남도 진주시 이반성면 장안로65번길 291",
    "lat": 35.2077902373,
    "lng": 128.3514577019,
    "img": "http://tong.visitkorea.or.kr/cms/resource/15/3040315_image2_1.jpg",
    "cat3": "A02010800"
   },
   {
    "title": "연화사(진주)",
    "addr": "경상남도 진주시 향교로42번길 13",
    "lat": 35.1977755387,
    "lng": 128.0877588505,
    "img": "http://tong.visitkorea.or.kr/cms/resource/32/3040432_image2_1.jpg",
    "cat3": "A02010800"
   },
   {
    "title": "운강서원",
    "addr": "경상남도 진주시 금곡면 금곡로 197-24",
    "lat": 35.1258662348,
    "lng": 128.2033395096,
    "img": "http://tong.visitkorea.or.kr/cms/resource/99/3348399_image2_1.jpg",
    "cat3": "A02010700"
   },
   {
    "title": "응석사(진주)",
    "addr": "경상남도 진주시 집현면 응석로 435",
    "lat": 35.2967611018,
    "lng": 128.0586698982,
    "img": "http://tong.visitkorea.or.kr/cms/resource/56/3040456_image2_1.jpg",
    "cat3": "A02010800"
   },
   {
    "title": "의곡사(진주)",
    "addr": "경상남도 진주시 의곡길 72",
    "lat": 35.2040247229,
    "lng": 128.0814036874,
    "img": "http://tong.visitkorea.or.kr/cms/resource/55/3040855_image2_1.jpg",
    "cat3": "A02010800"
   },
   {
    "title": "정글어드벤처",
    "addr": "경상남도 진주시 판문로 155",
    "lat": 35.1810488016,
    "lng": 128.0404245533,
    "img": "http://tong.visitkorea.or.kr/cms/resource/90/3538190_image2_1.jpg",
    "cat3": "A02030400"
   }
  ],
  "foods": [
   {
    "title": "남매식당 ／ NMSD",
    "addr": "경상남도 진주시 영천강로119번길 27-47",
    "lat": 35.1725181495,
    "lng": 128.1373135059,
    "img": "http://tong.visitkorea.or.kr/cms/resource/73/2864773_image2_1.jpg",
    "cat3": "A05020200"
   },
   {
    "title": "안의갈비탕",
    "addr": "경상남도 진주시 비봉로 6-2",
    "lat": 35.191303945,
    "lng": 128.0821511796,
    "img": "http://tong.visitkorea.or.kr/cms/resource/68/2843668_image2_1.JPG",
    "cat3": "A05020100"
   },
   {
    "title": "어사랑 생선구이",
    "addr": "경상남도 진주시 문산읍 동부로 743",
    "lat": 35.171219059,
    "lng": 128.1801736738,
    "img": "http://tong.visitkorea.or.kr/cms/resource/21/3455021_image2_1.jpg",
    "cat3": "A05020100"
   },
   {
    "title": "진주냉면산홍 본점",
    "addr": "경상남도 진주시 금산면 금산로 62",
    "lat": 35.2141385775,
    "lng": 128.1434063158,
    "img": "http://tong.visitkorea.or.kr/cms/resource/75/2784475_image2_1.JPG",
    "cat3": "A05020100"
   },
   {
    "title": "진주통닭",
    "addr": "경상남도 진주시 남강로29번길 15-20 (평거동)",
    "lat": 35.1661171911,
    "lng": 128.0428525113,
    "img": "http://tong.visitkorea.or.kr/cms/resource/99/3069899_image2_1.JPG",
    "cat3": "A05020100"
   },
   {
    "title": "참진주면옥&금돼지집",
    "addr": "경상남도 진주시 초북로20번길 8 (초전동)",
    "lat": 35.2127243126,
    "lng": 128.1133645432,
    "img": "http://tong.visitkorea.or.kr/cms/resource/46/3496346_image2_1.jpg",
    "cat3": "A05020100"
   },
   {
    "title": "천수식당",
    "addr": "경상남도 진주시 향교로8번길 3",
    "lat": 35.1972588581,
    "lng": 128.0837147743,
    "img": "http://tong.visitkorea.or.kr/cms/resource/65/2894265_image2_1.jpg",
    "cat3": "A05020100"
   },
   {
    "title": "하동복집",
    "addr": "경상남도 진주시 진양호로 553",
    "lat": 35.1937509594,
    "lng": 128.0859535595,
    "img": "http://tong.visitkorea.or.kr/cms/resource/76/3563876_image2_1.jpg",
    "cat3": "A05020100"
   },
   {
    "title": "한우지예",
    "addr": "경상남도 진주시 월아산로 1089-7",
    "lat": 35.1678496679,
    "lng": 128.1619198063,
    "img": "http://tong.visitkorea.or.kr/cms/resource/64/2851764_image2_1.JPG",
    "cat3": "A05020100"
   },
   {
    "title": "홍제원 진주점",
    "addr": "경상남도 진주시 남강로 1171",
    "lat": 35.1690210121,
    "lng": 128.1199734512,
    "img": "http://tong.visitkorea.or.kr/cms/resource/90/2864690_image2_1.JPG",
    "cat3": "A05020100"
   },
   {
    "title": "화개마을",
    "addr": "경상남도 진주시 진주대로 358-10",
    "lat": 35.1416904188,
    "lng": 128.1013063629,
    "img": "http://tong.visitkorea.or.kr/cms/resource/73/2837673_image2_1.JPG",
    "cat3": "A05020100"
   },
   {
    "title": "화원삼계탕",
    "addr": "경상남도 진주시 정촌면 화원길 7-13",
    "lat": 35.1356659817,
    "lng": 128.0948543094,
    "img": "http://tong.visitkorea.or.kr/cms/resource/96/2914696_image2_1.jpg",
    "cat3": "A05020100"
   },
   {
    "title": "황포냉면",
    "addr": "경상남도 진주시 호탄길34번길 10",
    "lat": 35.1643103826,
    "lng": 128.1173182527,
    "img": "http://tong.visitkorea.or.kr/cms/resource/32/2843632_image2_1.jpg",
    "cat3": "A05020100"
   },
   {
    "title": "[백년가게]중앙집",
    "addr": "경상남도 진주시 남강로673번길 6",
    "lat": 35.1917400689,
    "lng": 128.0856369738,
    "img": "http://tong.visitkorea.or.kr/cms/resource/92/2609192_image2_1.jpg",
    "cat3": "A05020100"
   },
   {
    "title": "[백년가게]하동집",
    "addr": "경상남도 진주시 진양호로 553",
    "lat": 35.1941120223,
    "lng": 128.0855369198,
    "img": "http://tong.visitkorea.or.kr/cms/resource/78/2629978_image2_1.JPG",
    "cat3": "A05020100"
   }
  ],
  "cafes": [
   {
    "title": "그라운드헤븐",
    "addr": "경상남도 진주시 대신로 626-13",
    "lat": 35.2157211927,
    "lng": 128.1130728231,
    "img": "http://tong.visitkorea.or.kr/cms/resource/41/2833041_image2_1.png",
    "cat3": "A05020900"
   },
   {
    "title": "라브리애",
    "addr": "경상남도 진주시 월아산로 1539-1",
    "lat": 35.1971658639,
    "lng": 128.1645965743,
    "img": "http://tong.visitkorea.or.kr/cms/resource/31/2864731_image2_1.JPG",
    "cat3": "A05020900"
   },
   {
    "title": "로스팅웨어",
    "addr": "경상남도 진주시 가호방아길 51-8",
    "lat": 35.1574195078,
    "lng": 128.1182655736,
    "img": "http://tong.visitkorea.or.kr/cms/resource/12/2843612_image2_1.JPG",
    "cat3": "A05020900"
   },
   {
    "title": "로터스 커피앤 베이커리",
    "addr": "경상남도 진주시 강주길 24",
    "lat": 35.1145044663,
    "lng": 128.0946354403,
    "img": "http://tong.visitkorea.or.kr/cms/resource/71/2833271_image2_1.JPG",
    "cat3": "A05020900"
   },
   {
    "title": "망경 마롱",
    "addr": "경상남도 진주시 천수로 190-3",
    "lat": 35.1814273048,
    "lng": 128.0836818613,
    "img": "http://tong.visitkorea.or.kr/cms/resource/99/2613999_image2_1.jpg",
    "cat3": "A05020900"
   },
   {
    "title": "메종B 커피&베이커리",
    "addr": "경상남도 진주시 판문로 78-11",
    "lat": 35.1744912749,
    "lng": 128.0442993862,
    "img": "http://tong.visitkorea.or.kr/cms/resource/92/2833292_image2_1.png",
    "cat3": "A05020900"
   },
   {
    "title": "소담원",
    "addr": "경상남도 진주시 신율길 210-62",
    "lat": 35.1416232278,
    "lng": 128.0713367688,
    "img": "http://tong.visitkorea.or.kr/cms/resource/79/2851779_image2_1.JPG",
    "cat3": "A05020900"
   },
   {
    "title": "수복빵집",
    "addr": "경상남도 진주시 진주대로1088번길 8 (평안동)",
    "lat": 35.1966755919,
    "lng": 128.0837758955,
    "img": "http://tong.visitkorea.or.kr/cms/resource/66/2894166_image2_1.jpg",
    "cat3": "A05020900"
   },
   {
    "title": "스텝온더그라운드",
    "addr": "경상남도 진주시 진주대로1808번길 94",
    "lat": 35.2335287208,
    "lng": 128.0242384815,
    "img": "http://tong.visitkorea.or.kr/cms/resource/25/2833325_image2_1.jpg",
    "cat3": "A05020900"
   },
   {
    "title": "아오라",
    "addr": "경상남도 진주시 망경로 17",
    "lat": 35.167136955,
    "lng": 128.0673531138,
    "img": "http://tong.visitkorea.or.kr/cms/resource/29/2846129_image2_1.JPG",
    "cat3": "A05020900"
   },
   {
    "title": "이늘카페",
    "addr": "경상남도 진주시 금산순환로402번길 11",
    "lat": 35.2299232694,
    "lng": 128.1633597038,
    "img": "http://tong.visitkorea.or.kr/cms/resource/36/2894236_image2_1.jpg",
    "cat3": "A05020900"
   },
   {
    "title": "카페 뮈렌",
    "addr": "경상남도 진주시 망경로297번길 8",
    "lat": 35.1860240505,
    "lng": 128.0859704283,
    "img": "http://tong.visitkorea.or.kr/cms/resource/51/2843651_image2_1.JPG",
    "cat3": "A05020900"
   }
  ],
  "culture": [
   {
    "title": "경상남도교육청 과학교육원",
    "addr": "경상남도 진주시 진성면 진의로 178-35",
    "lat": 35.2015359136,
    "lng": 128.2260244086,
    "img": "http://tong.visitkorea.or.kr/cms/resource/34/3538234_image2_1.jpg",
    "cat3": "A02060300"
   },
   {
    "title": "국립진주박물관",
    "addr": "경상남도 진주시 남강로 626-35",
    "lat": 35.1889652253,
    "lng": 128.0768878142,
    "img": "http://tong.visitkorea.or.kr/cms/resource/08/3557008_image2_1.jpg",
    "cat3": "A02060100"
   },
   {
    "title": "남가람박물관",
    "addr": "경상남도 진주시 내동면 칠봉산길 190",
    "lat": 35.1526244749,
    "lng": 128.0547851528,
    "img": "http://tong.visitkorea.or.kr/cms/resource/59/2799259_image2_1.jpg",
    "cat3": "A02060100"
   },
   {
    "title": "산림바이오소재연구소",
    "addr": "경상남도 진주시 진주대로 672 (가좌동)",
    "lat": 35.1665599239,
    "lng": 128.1057080996,
    "img": "http://tong.visitkorea.or.kr/cms/resource/48/3040248_image2_1.jpg",
    "cat3": "A02060300"
   },
   {
    "title": "진주목공예전수관",
    "addr": "경상남도 진주시 명석면 광제산로 367",
    "lat": 35.2470636202,
    "lng": 128.0418115809,
    "img": "http://tong.visitkorea.or.kr/cms/resource/72/2796572_image2_1.jpg",
    "cat3": "A02061100"
   },
   {
    "title": "진주시립이성자미술관",
    "addr": "경상남도 진주시 에나로128번길 14 (충무공동)",
    "lat": 35.1758484273,
    "lng": 128.1427629401,
    "img": "http://tong.visitkorea.or.kr/cms/resource/65/3540965_image2_1.jpg",
    "cat3": "A02060500"
   },
   {
    "title": "진주어린이박물관",
    "addr": "경상남도 진주시 망경로224번길 40 (망경동)",
    "lat": 35.1811633594,
    "lng": 128.078840626,
    "img": "http://tong.visitkorea.or.kr/cms/resource/04/2796604_image2_1.jpg",
    "cat3": "A02060100"
   },
   {
    "title": "진주익룡발자국전시관",
    "addr": "경상남도 진주시 영천강로68번길 22",
    "lat": 35.1687297283,
    "lng": 128.1396384019,
    "img": "http://tong.visitkorea.or.kr/cms/resource/03/2746303_image2_1.JPG",
    "cat3": "A02060300"
   },
   {
    "title": "진주청동기문화박물관",
    "addr": "경상남도 진주시 대평면 호반로 1353",
    "lat": 35.2253035571,
    "lng": 127.9627302091,
    "img": "http://tong.visitkorea.or.kr/cms/resource/29/3538929_image2_1.jpg",
    "cat3": "A02060100"
   }
  ],
  "shopping": [
   {
    "title": "실키안",
    "addr": "경상남도 진주시 문산읍 월아산로996번길 22",
    "lat": 35.1598839844,
    "lng": 128.1668529177,
    "img": "http://tong.visitkorea.or.kr/cms/resource/10/3040510_image2_1.jpg",
    "cat3": "A04010700"
   },
   {
    "title": "이현종합시장",
    "addr": "경상남도 진주시 신안로 165 (이현동)",
    "lat": 35.1920313565,
    "lng": 128.0661553411,
    "img": "http://tong.visitkorea.or.kr/cms/resource/87/2799287_image2_1.JPG",
    "cat3": "A04010200"
   },
   {
    "title": "자유시장 (진주)",
    "addr": "경상남도 진주시 도동천로 93 (상대동)",
    "lat": 35.18015014,
    "lng": 128.1100629152,
    "img": "http://tong.visitkorea.or.kr/cms/resource/98/2799298_image2_1.JPG",
    "cat3": "A04010200"
   },
   {
    "title": "진주 문산장 (4, 9일)",
    "addr": "경상남도 진주시 문산읍 소문길 68",
    "lat": 35.1705439351,
    "lng": 128.1689663396,
    "img": "http://tong.visitkorea.or.kr/cms/resource/68/3077368_image2_1.jpg",
    "cat3": "A04010100"
   },
   {
    "title": "진주농산물도매시장",
    "addr": "경상남도 진주시 남강로 1689 (초전동)",
    "lat": 35.2114746624,
    "lng": 128.1251163238,
    "img": "http://tong.visitkorea.or.kr/cms/resource/24/2796524_image2_1.JPG",
    "cat3": "A04010200"
   }
  ],
  "leports": [
   {
    "title": "가좌산대나무숲길",
    "addr": "경상남도 진주시 진주대로629번길 15-32 (가좌동)",
    "lat": 35.161457666,
    "lng": 128.1027001644,
    "img": "http://tong.visitkorea.or.kr/cms/resource/36/2792436_image2_1.jpg",
    "cat3": "A03022700"
   },
   {
    "title": "제이원빌리지",
    "addr": "경상남도 진주시 내동면 내축로563번길 27-3",
    "lat": 35.1313817535,
    "lng": 128.0172278923,
    "img": "http://tong.visitkorea.or.kr/cms/resource/81/2730981_image2_1.jpg",
    "cat3": "A03021700"
   },
   {
    "title": "진주 레일바이크",
    "addr": "경상남도 진주시 내동면 망경로 13",
    "lat": 35.1663425993,
    "lng": 128.0672698087,
    "img": "http://tong.visitkorea.or.kr/cms/resource/93/3589493_image2_1.jpg",
    "cat3": "A03022700"
   },
   {
    "title": "진주 소힘겨루기 경기장",
    "addr": "경상남도 진주시 판문오동길 100",
    "lat": 35.1760132613,
    "lng": 128.0406607768,
    "img": "http://tong.visitkorea.or.kr/cms/resource/81/3492781_image2_1.JPG",
    "cat3": "A03020300"
   },
   {
    "title": "키튼드림센터",
    "addr": "경상남도 진주시 서장대로61번길 11",
    "lat": 35.1875370548,
    "lng": 128.0457044756,
    "img": "http://tong.visitkorea.or.kr/cms/resource/27/2864127_image2_1.jpg",
    "cat3": "A03030700"
   }
  ],
  "stays": [
   {
    "title": "골든비즈니스호텔",
    "addr": "경상남도 진주시 에나로 101 (충무공동)",
    "lat": 35.1778370506,
    "lng": 128.1403742084,
    "img": "http://tong.visitkorea.or.kr/cms/resource/30/3081230_image2_1.jpg",
    "cat3": "B02010100"
   },
   {
    "title": "골든튤립 호텔 남강",
    "addr": "경상남도 진주시 남강로673번길 16 골든튤립에센셜 남강",
    "lat": 35.1916150997,
    "lng": 128.0865896708,
    "img": "http://tong.visitkorea.or.kr/cms/resource/69/2813169_image2_1.jpg",
    "cat3": "B02010100"
   },
   {
    "title": "달강",
    "addr": "경상남도 진주시 대평면 호반로 405",
    "lat": 35.1596670017,
    "lng": 127.991212766,
    "img": "http://tong.visitkorea.or.kr/cms/resource/93/3575193_image2_1.jpg",
    "cat3": "B02010700"
   },
   {
    "title": "솜누스",
    "addr": "경상남도 진주시 논개길 53",
    "lat": 35.1909151926,
    "lng": 128.0873979517,
    "img": "http://tong.visitkorea.or.kr/cms/resource/33/3546833_image2_1.jpg",
    "cat3": "B02010900"
   },
   {
    "title": "언덕위에 하얀집",
    "addr": "경상남도 진주시 대평면 호반로 414-23",
    "lat": 35.1613168126,
    "lng": 127.9910016296,
    "img": "http://tong.visitkorea.or.kr/cms/resource/47/3587547_image2_1.jpg",
    "cat3": "B02010700"
   },
   {
    "title": "주식회사제이스퀘어호텔",
    "addr": "경상남도 진주시 솔밭로 107",
    "lat": 35.1787752354,
    "lng": 128.1067465759,
    "img": "http://tong.visitkorea.or.kr/cms/resource/18/2803218_image2_1.jpg",
    "cat3": "B02010100"
   },
   {
    "title": "나인호텔",
    "addr": "경상남도 진주시 남강로 629-5 (본성동)",
    "lat": 35.1910400513,
    "lng": 128.0802235776,
    "img": "",
    "cat3": "B02010100"
   },
   {
    "title": "뉴그랜드호텔",
    "addr": "경상남도 진주시 에나로 97 (충무공동)",
    "lat": 35.1778203786,
    "lng": 128.1399936864,
    "img": "",
    "cat3": "B02010100"
   },
   {
    "title": "브라운도트호텔 진주충무공점",
    "addr": "경상남도 진주시 에나로 103-9 (충무공동)",
    "lat": 35.1786230714,
    "lng": 128.1402686411,
    "img": "",
    "cat3": "B02010100"
   },
   {
    "title": "GuestH(진주게스트하우스_GuestH)",
    "addr": "경상남도 진주시 모덕로64번길 9",
    "lat": 35.1842384302,
    "lng": 128.102288489,
    "img": "",
    "cat3": "B02011100"
   }
  ],
  "festivals": [
   {
    "title": "진주의 수호자들 - 유등빛을 지켜라",
    "addr": "경상남도 진주시 남강로 626 (본성동)",
    "lat": 35.190531773,
    "lng": 128.080104157,
    "img": "http://tong.visitkorea.or.kr/cms/resource/88/3542288_image2_1.jpg",
    "cat3": "A02070200",
    "tel": "010-4123-7112",
    "start": "20251005",
    "end": "20251019",
    "scope": "sigungu",
    "status": "annual"
   },
   {
    "title": "2025 코리아드라마페스티벌",
    "addr": "경상남도 진주시 논개길 103 (옥봉동)",
    "lat": 35.1899681714,
    "lng": 128.0926947349,
    "img": "http://tong.visitkorea.or.kr/cms/resource/72/3536872_image2_1.jpg",
    "cat3": "A02081300",
    "tel": "홈페이지 참조",
    "start": "20251004",
    "end": "20251019",
    "scope": "sigungu",
    "status": "annual"
   },
   {
    "title": "2025 진주전통공예비엔날레",
    "addr": "경상남도 진주시 진주대로879번길 18 (강남동)",
    "lat": 35.1785527282,
    "lng": 128.0892925564,
    "img": "http://tong.visitkorea.or.kr/cms/resource/60/3548860_image2_1.png",
    "cat3": "A02081300",
    "tel": "055-749-8707",
    "start": "20251001",
    "end": "20251116",
    "scope": "sigungu",
    "status": "annual"
   },
   {
    "title": "프로젝트 유어사이드 in 진주",
    "addr": "경상남도 진주시 강남동",
    "lat": 35.1779388961,
    "lng": 128.0886204093,
    "img": "http://tong.visitkorea.or.kr/cms/resource/40/3523340_image2_1.png",
    "cat3": "A02081300",
    "tel": "055-795-3246",
    "start": "20250905",
    "end": "20250907",
    "scope": "sigungu",
    "status": "annual"
   }
  ],
  "heritage_mapped": 120
 },
 {
  "region": "충청남도 부여군",
  "sido": "충남",
  "sigungu": "부여군",
  "theme": "문화유산형",
  "segment": "숨은매력지(문화유산형)",
  "composite": 1.02,
  "hidden_score": 2.09,
  "heritage": 163,
  "axes": {
   "visit": 2.7,
   "attract": 1.0,
   "connect": -0.7
  },
  "lat": 36.279847,
  "lng": 126.875467,
  "spots": [
   {
    "title": "가림상회",
    "addr": "충청남도 부여군 임천면 성흥로97번길 4-5",
    "lat": 36.1899003585,
    "lng": 126.8928691464,
    "img": "http://tong.visitkorea.or.kr/cms/resource/19/3305119_image2_1.jpg",
    "cat3": "A02030400"
   },
   {
    "title": "간곡서원",
    "addr": "충청남도 부여군 임천면 성흥로283번길 31-4",
    "lat": 36.1825403583,
    "lng": 126.90839295,
    "img": "http://tong.visitkorea.or.kr/cms/resource/69/3339469_image2_1.jpg",
    "cat3": "A02010700"
   },
   {
    "title": "거전마을",
    "addr": "충청남도 부여군 은산면 지천로525번길 7-14",
    "lat": 36.3597300019,
    "lng": 126.8403693657,
    "img": "http://tong.visitkorea.or.kr/cms/resource/41/3540241_image2_1.JPG",
    "cat3": "A02030100"
   },
   {
    "title": "고란약수",
    "addr": "충청남도 부여군 부여읍 부소로 31-5",
    "lat": 36.2927361764,
    "lng": 126.9138867671,
    "img": "http://tong.visitkorea.or.kr/cms/resource/71/3540271_image2_1.JPG",
    "cat3": "A02010800"
   },
   {
    "title": "구드래조각공원",
    "addr": "충청남도 부여군 부여읍 백강로 148",
    "lat": 36.2872339058,
    "lng": 126.9068264344,
    "img": "http://tong.visitkorea.or.kr/cms/resource/97/3568197_image2_1.jpg",
    "cat3": "A02020700"
   },
   {
    "title": "금강 문화관",
    "addr": "충청남도 부여군 부여읍 북포로 451",
    "lat": 36.317164399,
    "lng": 126.9405948347,
    "img": "http://tong.visitkorea.or.kr/cms/resource/55/3568155_image2_1.jpg",
    "cat3": "A02040800"
   },
   {
    "title": "낙화암",
    "addr": "충청남도 부여군 부여읍 쌍북리",
    "lat": 36.2920445455,
    "lng": 126.9114147845,
    "img": "http://tong.visitkorea.or.kr/cms/resource/72/3335172_image2_1.jpg",
    "cat3": "A02010700"
   },
   {
    "title": "대조사(부여)",
    "addr": "충청남도 부여군 임천면 성흥로197번길 112",
    "lat": 36.1907920635,
    "lng": 126.9009683972,
    "img": "http://tong.visitkorea.or.kr/cms/resource/70/3565170_image2_1.jpg",
    "cat3": "A02010800"
   },
   {
    "title": "도강영당",
    "addr": "충청남도 부여군 부여읍 부소로 15",
    "lat": 36.2852231283,
    "lng": 126.9127481788,
    "img": "http://tong.visitkorea.or.kr/cms/resource/86/3348786_image2_1.jpg",
    "cat3": "A02010700"
   },
   {
    "title": "동곡서원",
    "addr": "충청남도 부여군 세도면 동사리",
    "lat": 36.1788439002,
    "lng": 126.9281135038,
    "img": "http://tong.visitkorea.or.kr/cms/resource/03/3336403_image2_1.jpg",
    "cat3": "A02010700"
   },
   {
    "title": "동절사",
    "addr": "충청남도 부여군 남면 내곡리",
    "lat": 36.2082465494,
    "lng": 126.7939136421,
    "img": "http://tong.visitkorea.or.kr/cms/resource/56/3356256_image2_1.jpg",
    "cat3": "A02010700"
   },
   {
    "title": "만수산자연휴양림",
    "addr": "충청남도 부여군 외산면 휴양로 107",
    "lat": 36.3385857609,
    "lng": 126.7119564584,
    "img": "http://tong.visitkorea.or.kr/cms/resource/32/3336432_image2_1.jpg",
    "cat3": "A01010600"
   },
   {
    "title": "무량사(부여)",
    "addr": "충청남도 부여군 무량로 203",
    "lat": 36.3164935289,
    "lng": 126.693361488,
    "img": "http://tong.visitkorea.or.kr/cms/resource/55/3560455_image2_1.jpg",
    "cat3": "A02010800"
   },
   {
    "title": "무진암(부여)",
    "addr": "충청남도 부여군 외산면 무량로 181-17",
    "lat": 36.3141437913,
    "lng": 126.6929421434,
    "img": "http://tong.visitkorea.or.kr/cms/resource/08/3565008_image2_1.jpg",
    "cat3": "A02010800"
   },
   {
    "title": "미암사",
    "addr": "충청남도 부여군 내산면 성충로미암길 128",
    "lat": 36.2793268475,
    "lng": 126.7677057906,
    "img": "http://tong.visitkorea.or.kr/cms/resource/17/3540317_image2_1.JPG",
    "cat3": "A02010800"
   },
   {
    "title": "백마강",
    "addr": "충청남도 부여군 규암면 백제문로 553",
    "lat": 36.3065679796,
    "lng": 126.9170000097,
    "img": "http://tong.visitkorea.or.kr/cms/resource/17/3568217_image2_1.jpg",
    "cat3": "A01011800"
   },
   {
    "title": "백제 오천결사대 충혼탑",
    "addr": "충청남도 부여군 부여읍 동남리",
    "lat": 36.2699442865,
    "lng": 126.9107265429,
    "img": "http://tong.visitkorea.or.kr/cms/resource/79/3348679_image2_1.jpg",
    "cat3": "A02050200"
   },
   {
    "title": "부산각서석",
    "addr": "충청남도 부여군 규암면 신리",
    "lat": 36.2854449805,
    "lng": 126.8929138404,
    "img": "http://tong.visitkorea.or.kr/cms/resource/80/3348980_image2_1.jpg",
    "cat3": "A02010700"
   },
   {
    "title": "부산서원",
    "addr": "충청남도 부여군 규암면 진변로136번길 11-5",
    "lat": 36.2844951021,
    "lng": 126.8936832412,
    "img": "http://tong.visitkorea.or.kr/cms/resource/91/3356291_image2_1.jpg",
    "cat3": "A02010700"
   },
   {
    "title": "부여 군수리 사지",
    "addr": "충청남도 부여군 부여읍 군수리",
    "lat": 36.2691443565,
    "lng": 126.9095127843,
    "img": "http://tong.visitkorea.or.kr/cms/resource/22/3336422_image2_1.jpg",
    "cat3": "A02010700"
   }
  ],
  "foods": [
   {
    "title": "루디꼬",
    "addr": "충청남도 부여군 성왕로 324",
    "lat": 36.2835318361,
    "lng": 126.9231584018,
    "img": "http://tong.visitkorea.or.kr/cms/resource/88/2832888_image2_1.jpg",
    "cat3": "A05020200"
   },
   {
    "title": "메밀꽃필무렵",
    "addr": "충청남도 부여군 북포로 98",
    "lat": 36.2911587376,
    "lng": 126.9230026581,
    "img": "http://tong.visitkorea.or.kr/cms/resource/75/2926975_image2_1.jpg",
    "cat3": "A05020100"
   },
   {
    "title": "백마가든",
    "addr": "충청남도 부여군 충절로 3711",
    "lat": 36.3507884175,
    "lng": 126.7859272694,
    "img": "http://tong.visitkorea.or.kr/cms/resource/17/2913417_image2_1.jpg",
    "cat3": "A05020100"
   },
   {
    "title": "서동한우 본점",
    "addr": "충청남도 부여군 성왕로 256",
    "lat": 36.2830206494,
    "lng": 126.9154452179,
    "img": "http://tong.visitkorea.or.kr/cms/resource/93/2926993_image2_1.jpg",
    "cat3": "A05020100"
   },
   {
    "title": "소담돈까스",
    "addr": "충청남도 부여군 성충로미암길 8",
    "lat": 36.2853234158,
    "lng": 126.7696221272,
    "img": "http://tong.visitkorea.or.kr/cms/resource/77/2832977_image2_1.jpg",
    "cat3": "A05020200"
   },
   {
    "title": "엄가네곰탕",
    "addr": "충청남도 부여군 나루터로 21-4",
    "lat": 36.2845953771,
    "lng": 126.9101762043,
    "img": "http://tong.visitkorea.or.kr/cms/resource/84/2877384_image2_1.jpg",
    "cat3": "A05020100"
   },
   {
    "title": "이민물장어 하우스",
    "addr": "충청남도 부여군 규암면 백제문로304번길 59-2",
    "lat": 36.3017931464,
    "lng": 126.8951021003,
    "img": "http://tong.visitkorea.or.kr/cms/resource/66/3589966_image2_1.jpg",
    "cat3": "A05020100"
   },
   {
    "title": "하늘채 황금수라",
    "addr": "충청남도 부여군 부여읍 계백로 373",
    "lat": 36.2802321267,
    "lng": 126.9181589375,
    "img": "http://tong.visitkorea.or.kr/cms/resource/39/2800539_image2_1.jpg",
    "cat3": "A05020100"
   },
   {
    "title": "구드래 한우타운",
    "addr": "충청남도 부여군 부여읍 나루터로 25",
    "lat": 36.2848870071,
    "lng": 126.910001212,
    "img": "",
    "cat3": "A05020100"
   },
   {
    "title": "구드래황토정",
    "addr": "충청남도 부여군 규암면 백제문로 30",
    "lat": 36.2788622785,
    "lng": 126.8858702022,
    "img": "",
    "cat3": "A05020100"
   },
   {
    "title": "백제고을 누룽지백숙",
    "addr": "충청남도 부여군 부여읍 정림로 96",
    "lat": 36.2781184511,
    "lng": 126.9165174739,
    "img": "",
    "cat3": "A05020100"
   },
   {
    "title": "백제궁 수라간",
    "addr": "충청남도 부여군 규암면 백제문로 555",
    "lat": 36.3064541159,
    "lng": 126.9176971723,
    "img": "",
    "cat3": "A05020100"
   },
   {
    "title": "백제의집",
    "addr": "충청남도 부여군 부여읍 성왕로 248",
    "lat": 36.2830373016,
    "lng": 126.9147563903,
    "img": "",
    "cat3": "A05020100"
   },
   {
    "title": "연꽃이야기",
    "addr": "충청남도 부여군 부여읍 성왕로 22",
    "lat": 36.2687637933,
    "lng": 126.9065463936,
    "img": "",
    "cat3": "A05020700"
   },
   {
    "title": "향우정",
    "addr": "충청남도 부여군 부여읍 나루터로 33",
    "lat": 36.2854785973,
    "lng": 126.9094790206,
    "img": "",
    "cat3": "A05020100"
   }
  ],
  "cafes": [
   {
    "title": "높은댕이",
    "addr": "충청남도 부여군 삼충로 325-34",
    "lat": 36.3113208683,
    "lng": 126.9546520624,
    "img": "http://tong.visitkorea.or.kr/cms/resource/72/2832872_image2_1.jpg",
    "cat3": "A05020900"
   },
   {
    "title": "무드빌리지",
    "addr": "충청남도 부여군 뒷개로27번길 10-1",
    "lat": 36.2929057858,
    "lng": 126.9245163652,
    "img": "http://tong.visitkorea.or.kr/cms/resource/36/3574436_image2_1.jpg",
    "cat3": "A05020900"
   },
   {
    "title": "비비비",
    "addr": "충청남도 부여군 삼충로 99",
    "lat": 36.2954280769,
    "lng": 126.9450838984,
    "img": "http://tong.visitkorea.or.kr/cms/resource/40/2832940_image2_1.jpg",
    "cat3": "A05020900"
   },
   {
    "title": "수북로1945",
    "addr": "충청남도 부여군 규암면 수북로41번길 11-50",
    "lat": 36.2722963914,
    "lng": 126.8874757872,
    "img": "http://tong.visitkorea.or.kr/cms/resource/20/2820620_image2_1.JPG",
    "cat3": "A05020900"
   },
   {
    "title": "합송리994",
    "addr": "충청남도 부여군 규암면 흥수로 581-6",
    "lat": 36.2664324759,
    "lng": 126.8471906661,
    "img": "http://tong.visitkorea.or.kr/cms/resource/41/2792441_image2_1.jpg",
    "cat3": "A05020900"
   }
  ],
  "culture": [
   {
    "title": "국립부여박물관",
    "addr": "충청남도 부여군 부여읍 금성로 5",
    "lat": 36.2763825813,
    "lng": 126.9189645227,
    "img": "http://tong.visitkorea.or.kr/cms/resource/59/3544159_image2_1.jpg",
    "cat3": "A02060100"
   },
   {
    "title": "백제원(부여)",
    "addr": "충청남도 부여군 규암면 백제문로 553",
    "lat": 36.3064874337,
    "lng": 126.9170222321,
    "img": "http://tong.visitkorea.or.kr/cms/resource/60/3348760_image2_1.jpg",
    "cat3": "A02060100"
   }
  ],
  "shopping": [
   {
    "title": "부여 중앙시장",
    "addr": "충청남도 부여군 부여읍 중앙로 15",
    "lat": 36.2808402864,
    "lng": 126.9121900121,
    "img": "http://tong.visitkorea.or.kr/cms/resource/24/3038924_image2_1.JPG",
    "cat3": "A04010200"
   },
   {
    "title": "부여장 (5, 10일)",
    "addr": "충청남도 부여군 부여읍 성왕로173번길 12",
    "lat": 36.2814762458,
    "lng": 126.9076348477,
    "img": "http://tong.visitkorea.or.kr/cms/resource/57/1963357_image2_1.jpg",
    "cat3": "A04010100"
   },
   {
    "title": "만세장터 봉사회",
    "addr": "충청남도 부여군 임천면 성흥로88번길 10",
    "lat": 36.1898670059,
    "lng": 126.8915331555,
    "img": "",
    "cat3": "A04010900"
   }
  ],
  "leports": [
   {
    "title": "교육가족체험장",
    "addr": "충청남도 부여군 인세로 40-3",
    "lat": 36.1671071219,
    "lng": 126.9723876282,
    "img": "http://tong.visitkorea.or.kr/cms/resource/34/2908534_image2_1.jpg",
    "cat3": "A03021700"
   },
   {
    "title": "굿뜨래웰빙마을",
    "addr": "충청남도 부여군 부여읍 가탑로 75",
    "lat": 36.2756162041,
    "lng": 126.9305773912,
    "img": "http://tong.visitkorea.or.kr/cms/resource/19/2749819_image2_1.jpg",
    "cat3": "A03021700"
   },
   {
    "title": "내안의숲오토캠핑장",
    "addr": "충청남도 부여군 옥산면 내대리",
    "lat": 36.1851455712,
    "lng": 126.7449130848,
    "img": "http://tong.visitkorea.or.kr/cms/resource/90/2728790_image2_1.jpg",
    "cat3": "A03021700"
   },
   {
    "title": "느루캠핑장",
    "addr": "충청남도 부여군 장암면 장암로 67-28",
    "lat": 36.2382252933,
    "lng": 126.8875683461,
    "img": "http://tong.visitkorea.or.kr/cms/resource/84/2908484_image2_1.jpg",
    "cat3": "A03021700"
   },
   {
    "title": "반산저수지",
    "addr": "충청남도 부여군 규암면 호반로",
    "lat": 36.2775061491,
    "lng": 126.8438184541,
    "img": "http://tong.visitkorea.or.kr/cms/resource/40/3038940_image2_1.JPG",
    "cat3": "A03030500"
   },
   {
    "title": "백마강레저파크",
    "addr": "충청남도 부여군 규암면 왕흥로 424",
    "lat": 36.3011741256,
    "lng": 126.9154586243,
    "img": "http://tong.visitkorea.or.kr/cms/resource/84/3112484_image2_1.jpg",
    "cat3": "A03030100"
   },
   {
    "title": "백마강레져",
    "addr": "충청남도 부여군 부여읍 정동리",
    "lat": 36.3149451181,
    "lng": 126.9354148023,
    "img": "http://tong.visitkorea.or.kr/cms/resource/94/2799994_image2_1.jpg",
    "cat3": "A03022100"
   },
   {
    "title": "백제CC",
    "addr": "충청남도 부여군 은산면 충절로 3734-82",
    "lat": 36.3475860889,
    "lng": 126.7907074806,
    "img": "http://tong.visitkorea.or.kr/cms/resource/25/2770425_image2_1.jpg",
    "cat3": "A03020700"
   },
   {
    "title": "복금저수지",
    "addr": "충청남도 부여군 충화면 가림로",
    "lat": 36.1837029557,
    "lng": 126.8414433603,
    "img": "http://tong.visitkorea.or.kr/cms/resource/75/3341075_image2_1.JPG",
    "cat3": "A03030500"
   },
   {
    "title": "부여 산직지",
    "addr": "충청남도 부여군 초촌면 선사로 286",
    "lat": 36.2610392408,
    "lng": 127.0410317702,
    "img": "http://tong.visitkorea.or.kr/cms/resource/25/3568125_image2_1.jpg",
    "cat3": "A03030500"
   }
  ],
  "stays": [
   {
    "title": "부여안방마님",
    "addr": "충청남도 부여군 규암면 흥수로590번길 17",
    "lat": 36.2655770389,
    "lng": 126.8484100237,
    "img": "http://tong.visitkorea.or.kr/cms/resource/04/2679904_image2_1.jpg",
    "cat3": "B02011600"
   },
   {
    "title": "달을품은한옥",
    "addr": "충청남도 부여군 부여읍 월함로 107-1",
    "lat": 36.2922198057,
    "lng": 126.9275244464,
    "img": "",
    "cat3": "B02011600"
   },
   {
    "title": "롯데리조트 부여",
    "addr": "충청남도 부여군 규암면 백제문로 400",
    "lat": 36.3039124464,
    "lng": 126.9007876454,
    "img": "",
    "cat3": "B02010100"
   },
   {
    "title": "서동선화한옥",
    "addr": "충청남도 부여군 부여읍 월함로 105-1",
    "lat": 36.2918754037,
    "lng": 126.9276911069,
    "img": "",
    "cat3": "B02011600"
   }
  ],
  "festivals": [
   {
    "title": "국가유산 미디어아트 부여 정림사지",
    "addr": "충청남도 부여군 부여읍 정림로 83",
    "lat": 36.279071057,
    "lng": 126.9128955516,
    "img": "http://tong.visitkorea.or.kr/cms/resource/27/3563827_image2_1.jpg",
    "cat3": "A02070200",
    "tel": "041-837-1722",
    "start": "20251002",
    "end": "20251012",
    "scope": "sigungu",
    "status": "annual"
   }
  ],
  "heritage_mapped": 119
 },
 {
  "region": "충청남도 홍성군",
  "sido": "충남",
  "sigungu": "홍성군",
  "theme": "문화유산형",
  "segment": "숨은매력지(문화유산형)",
  "composite": 1.4,
  "hidden_score": 1.93,
  "heritage": 59,
  "axes": {
   "visit": 0.4,
   "attract": 3.6,
   "connect": 0.1
  },
  "lat": 36.572868,
  "lng": 126.604679,
  "spots": [
   {
    "title": "결성동헌",
    "addr": "충청남도 홍성군 결성면 홍남서로738번길 23",
    "lat": 36.5240393726,
    "lng": 126.5451110316,
    "img": "http://tong.visitkorea.or.kr/cms/resource/51/3357051_image2_1.jpg",
    "cat3": "A02010100"
   },
   {
    "title": "결성향교",
    "addr": "충청남도 홍성군 결성면 홍남서로707번길 21-8",
    "lat": 36.5289137789,
    "lng": 126.5431610786,
    "img": "http://tong.visitkorea.or.kr/cms/resource/75/3357075_image2_1.jpg",
    "cat3": "A02010700"
   },
   {
    "title": "광경사지 석불좌상",
    "addr": "충청남도 홍성군 홍성읍 내법길 81-23",
    "lat": 36.6141868795,
    "lng": 126.6795242974,
    "img": "http://tong.visitkorea.or.kr/cms/resource/12/3081012_image2_1.JPG",
    "cat3": "A02010700"
   },
   {
    "title": "광천생활체육공원",
    "addr": "충청남도 홍성군 광천읍 광천리",
    "lat": 36.5073484031,
    "lng": 126.6354866605,
    "img": "http://tong.visitkorea.or.kr/cms/resource/27/3065227_image2_1.jpg",
    "cat3": "A02020700"
   },
   {
    "title": "광천토굴새우젓단지",
    "addr": "충청남도 홍성군 광천읍 광천로 91",
    "lat": 36.4852533774,
    "lng": 126.6156112576,
    "img": "http://tong.visitkorea.or.kr/cms/resource/53/3034653_image2_1.jpg",
    "cat3": "A02030400"
   },
   {
    "title": "구절암(홍성)",
    "addr": "충청남도 홍성군 구항면 거북로218번길 163",
    "lat": 36.569193902,
    "lng": 126.6257414558,
    "img": "http://tong.visitkorea.or.kr/cms/resource/58/3079458_image2_1.jpg",
    "cat3": "A02010800"
   },
   {
    "title": "궁리포구",
    "addr": "충청남도 홍성군 서부면 궁리",
    "lat": 36.5884471203,
    "lng": 126.4572117089,
    "img": "http://tong.visitkorea.or.kr/cms/resource/79/3357079_image2_1.jpg",
    "cat3": "A01011400"
   },
   {
    "title": "그림같은수목원",
    "addr": "충청남도 홍성군 광천읍 충서로400번길 102-36",
    "lat": 36.5198135343,
    "lng": 126.6295285338,
    "img": "http://tong.visitkorea.or.kr/cms/resource/61/2770761_image2_1.jpg",
    "cat3": "A01010700"
   },
   {
    "title": "남당 노을 전망대",
    "addr": "충청남도 홍성군 서부면 남당리",
    "lat": 36.5435968637,
    "lng": 126.4652510537,
    "img": "http://tong.visitkorea.or.kr/cms/resource/16/3449016_image2_1.jpg",
    "cat3": "A02050600"
   },
   {
    "title": "남당항어촌마을",
    "addr": "충청남도 홍성군 서부면 남당리",
    "lat": 36.5481408258,
    "lng": 126.4676007221,
    "img": "http://tong.visitkorea.or.kr/cms/resource/19/3338019_image2_1.jpg",
    "cat3": "A02030100"
   },
   {
    "title": "석련사(홍성)",
    "addr": "충청남도 홍성군 구항면 구성북로160번길 76",
    "lat": 36.6045369289,
    "lng": 126.6182078628,
    "img": "http://tong.visitkorea.or.kr/cms/resource/53/3063053_image2_1.jpg",
    "cat3": "A02010800"
   },
   {
    "title": "성삼문선생유허지",
    "addr": "충청남도 홍성군 홍북읍 매죽헌길 403-12",
    "lat": 36.6454591758,
    "lng": 126.7310715906,
    "img": "http://tong.visitkorea.or.kr/cms/resource/74/3079474_image2_1.jpg",
    "cat3": "A02010500"
   },
   {
    "title": "속동전망대",
    "addr": "충청남도 홍성군 서부면 남당항로 689",
    "lat": 36.5768041393,
    "lng": 126.4644113664,
    "img": "http://tong.visitkorea.or.kr/cms/resource/49/3333749_image2_1.jpg",
    "cat3": "A02050600"
   },
   {
    "title": "아가새농장",
    "addr": "충청남도 홍성군 서부면 서부로 295-90",
    "lat": 36.5698333557,
    "lng": 126.5014887584,
    "img": "http://tong.visitkorea.or.kr/cms/resource/84/2678984_image2_1.bmp",
    "cat3": "A02030100"
   },
   {
    "title": "어사리 노을공원",
    "addr": "충청남도 홍성군 서부면 남당항자전거길 53",
    "lat": 36.5561538055,
    "lng": 126.4683671084,
    "img": "http://tong.visitkorea.or.kr/cms/resource/17/3065317_image2_1.jpg",
    "cat3": "A02020700"
   },
   {
    "title": "용봉산자연휴양림",
    "addr": "충청남도 홍성군 홍북읍 용봉산2길 87",
    "lat": 36.6449829445,
    "lng": 126.6569338469,
    "img": "http://tong.visitkorea.or.kr/cms/resource/35/3340035_image2_1.jpg",
    "cat3": "A01010600"
   },
   {
    "title": "최치원선생유적지",
    "addr": "충청남도 홍성군 장곡면 월계리",
    "lat": 36.5287476428,
    "lng": 126.733713356,
    "img": "http://tong.visitkorea.or.kr/cms/resource/93/3091793_image2_1.JPG",
    "cat3": "A02010700"
   },