[
 {
  "region": "경상북도 상주시",
  "sido": "경북",
  "sigungu": "상주시",
  "theme": "문화유산형",
  "segment": "숨은매력지(문화유산형)",
  "composite": 1.61,
  "hidden_score": 2.55,
  "heritage": 112,
  "axes": {
   "visit": -0.6,
   "attract": 4.2,
   "connect": 1.3
  },
  "lat": 36.456344,
  "lng": 128.146487,
  "spots": [
   {
    "title": "견훤산성",
    "addr": "경상북도 상주시 화북면 장암리",
    "lat": 36.5756268834,
    "lng": 127.8993602813,
    "img": "http://tong.visitkorea.or.kr/cms/resource/63/3031063_image2_1.jpg",
    "start": null,
    "end": null
   },
   {
    "title": "경북 상주 함창·이안·공검면 [슬로시티]",
    "addr": "경상북도 상주시 함창읍 함창중앙로 135",
    "lat": 36.570190974,
    "lng": 128.1794354346,
    "img": "http://tong.visitkorea.or.kr/cms/resource/12/3042612_image2_1.jpg",
    "start": null,
    "end": null
   },
   {
    "title": "낙동강 경천대(경천대 전망대)",
    "addr": "경상북도 상주시 사벌국면 경천로 652",
    "lat": 36.4582827307,
    "lng": 128.2440300692,
    "img": "http://tong.visitkorea.or.kr/cms/resource/90/3082790_image2_1.jpg",
    "start": null,
    "end": null
   },
   {
    "title": "낙암서원",
    "addr": "경상북도 상주시 중동면 대바위길 183-13",
    "lat": 36.4104275695,
    "lng": 128.2704624024,
    "img": "http://tong.visitkorea.or.kr/cms/resource/37/3403637_image2_1.jpg",
    "start": null,
    "end": null
   },
   {
    "title": "노음산(노악산)",
    "addr": "경상북도 상주시 남장동",
    "lat": 36.4389461205,
    "lng": 128.0967215065,
    "img": "http://tong.visitkorea.or.kr/cms/resource/97/3579397_image2_1.jpg",
    "start": null,
    "end": null
   },
   {
    "title": "도남서원",
    "addr": "경상북도 상주시 도남2길 91 (도남동)",
    "lat": 36.4396989342,
    "lng": 128.254493552,
    "img": "http://tong.visitkorea.or.kr/cms/resource/56/3031056_image2_1.jpg",
    "start": null,
    "end": null
   },
   {
    "title": "도안서원",
    "addr": "경상북도 상주시 화동면 판곡1길 37",
    "lat": 36.4153633693,
    "lng": 127.9811630177,
    "img": "http://tong.visitkorea.or.kr/cms/resource/67/3403667_image2_1.jpg",
    "start": null,
    "end": null
   },
   {
    "title": "동해사(상주)",
    "addr": "경상북도 상주시 서곡3길 173",
    "lat": 36.4052267611,
    "lng": 128.1943109883,
    "img": "http://tong.visitkorea.or.kr/cms/resource/25/3413925_image2_1.jpg",
    "start": null,
    "end": null
   }
  ],
  "foods": [
   {
    "title": "고려분식",
    "addr": "경상북도 상주시 중앙시장길 29",
    "lat": 36.4145917598,
    "lng": 128.1617247358,
    "img": "http://tong.visitkorea.or.kr/cms/resource/43/2831643_image2_1.jpg",
    "start": null,
    "end": null
   },
   {
    "title": "구프커피",
    "addr": "경상북도 상주시 개운2길 19-12",
    "lat": 36.4036010591,
    "lng": 128.1459764469,
    "img": "http://tong.visitkorea.or.kr/cms/resource/59/2831659_image2_1.jpg",
    "start": null,
    "end": null
   },
   {
    "title": "남산가든",
    "addr": "경상북도 상주시 신서문1길 137",
    "lat": 36.407959027,
    "lng": 128.1531756833,
    "img": "http://tong.visitkorea.or.kr/cms/resource/74/2831674_image2_1.jpg",
    "start": null,
    "end": null
   },
   {
    "title": "루안",
    "addr": "경상북도 상주시 중앙로 177-7",
    "lat": 36.4159970795,
    "lng": 128.1575917316,
    "img": "http://tong.visitkorea.or.kr/cms/resource/90/2831690_image2_1.jpg",
    "start": null,
    "end": null
   },
   {
    "title": "명주정원",
    "addr": "경상북도 상주시 새잼이길 7",
    "lat": 36.5765649953,
    "lng": 128.1658864619,
    "img": "http://tong.visitkorea.or.kr/cms/resource/02/2831702_image2_1.jpg",
    "start": null,
    "end": null
   }
  ],
  "stays": [],
  "festivals": [
   {
    "title": "굿네이버스 세계 놀이 페스티벌 '놀자GO! 지구로!'",
    "addr": "경상북도 포항시 북구 양덕남로 166 (양덕동)",
    "lat": 36.0800254208,
    "lng": 129.4107100131,
    "img": "http://tong.visitkorea.or.kr/cms/resource/61/3567661_image2_1.jpg",
    "start": "20251207",
    "end": "20251207",
    "scope": "sido",
    "status": "annual"
   },
   {
    "title": "아이가 행복입니다 해피투게더 경북 in 포항",
    "addr": "경상북도 포항시 남구 희망대로 814 (대도동)",
    "lat": 36.0065133515,
    "lng": 129.3615414552,
    "img": "http://tong.visitkorea.or.kr/cms/resource/22/3567122_image2_1.jpg",
    "start": "20251121",
    "end": "20251122",
    "scope": "sido",
    "status": "annual"
   },
   {
    "title": "죽변항 수산물축제",
    "addr": "경상북도 울진군 죽변면 죽변항길 150",
    "lat": 37.0571311575,
    "lng": 129.4250268958,
    "img": "http://tong.visitkorea.or.kr/cms/resource/82/3563382_image2_1.jpg",
    "start": "20251107",
    "end": "20251109",
    "scope": "sido",
    "status": "annual"
   },
   {
    "title": "2025 한국공예전 <미래유산_우리가 남기고자 하는 것들에 관하여>",
    "addr": "경상북도 경주시 경감로 627 (천군동)",
    "lat": 35.8339676142,
    "lng": 129.2911192494,
    "img": "http://tong.visitkorea.or.kr/cms/resource/40/3553940_image2_1.jpg",
    "start": "20251027",
    "end": "20251130",
    "scope": "sido",
    "status": "annual"
   },
   {
    "title": "2025 포항스틸아트페스티벌 (2025PSAF)",
    "addr": "경상북도 포항시 북구 선착로 78 (동빈1가)",
    "lat": 36.0486865532,
    "lng": 129.3716421277,
    "img": "http://tong.visitkorea.or.kr/cms/resource/03/3547903_image2_1.jpg",
    "start": "20251025",
    "end": "20251109",
    "scope": "sido",
    "status": "annual"
   }
  ],
  "heritage_mapped": 75
 },
 {
  "region": "충청남도 공주시",
  "sido": "충남",
  "sigungu": "공주시",
  "theme": "문화유산형",
  "segment": "숨은매력지(문화유산형)",
  "composite": 1.39,
  "hidden_score": 2.52,
  "heritage": 165,
  "axes": {
   "visit": 3.3,
   "attract": 1.3,
   "connect": -0.4
  },
  "lat": 36.486821,
  "lng": 127.134142,
  "spots": [
   {
    "title": "갑사",
    "addr": "충청남도 공주시 계룡면 갑사로 567-3",
    "lat": 36.3650187978,
    "lng": 127.1875769727,
    "img": "http://tong.visitkorea.or.kr/cms/resource/19/3533519_image2_1.jpg",
    "start": null,
    "end": null
   },
   {
    "title": "계룡산상신농촌체험휴양마을",
    "addr": "충청남도 공주시 반포면 상하신길 396",
    "lat": 36.3847448812,
    "lng": 127.21959024,
    "img": "http://tong.visitkorea.or.kr/cms/resource/63/3355563_image2_1.jpg",
    "start": null,
    "end": null
   },
   {
    "title": "고로서원",
    "addr": "충청남도 공주시 사곡면 능계길 60-67",
    "lat": 36.5109630539,
    "lng": 127.0224573019,
    "img": "http://tong.visitkorea.or.kr/cms/resource/00/3334100_image2_1.jpg",
    "start": null,
    "end": null
   },
   {
    "title": "곰나루국민관광단지",
    "addr": "충청남도 공주시 백제큰길 2110-16 (웅진동)",
    "lat": 36.4702692908,
    "lng": 127.1117170502,
    "img": "http://tong.visitkorea.or.kr/cms/resource/26/3534726_image2_1.jpg",
    "start": null,
    "end": null
   },
   {
    "title": "공산성연지",
    "addr": "충청남도 공주시 금성동",
    "lat": 36.4639480871,
    "lng": 127.1284157218,
    "img": "http://tong.visitkorea.or.kr/cms/resource/15/2916015_image2_1.jpg",
    "start": null,
    "end": null
   },
   {
    "title": "공주 갑사 철당간",
    "addr": "충청남도 공주시 계룡면 중장리",
    "lat": 36.3647465688,
    "lng": 127.1854160623,
    "img": "http://tong.visitkorea.or.kr/cms/resource/99/3560499_image2_1.jpg",
    "start": null,
    "end": null
   },
   {
    "title": "공주 고마나루",
    "addr": "충청남도 공주시 백제큰길 2045 (웅진동)",
    "lat": 36.4687082638,
    "lng": 127.1063453516,
    "img": "http://tong.visitkorea.or.kr/cms/resource/38/3534838_image2_1.jpg",
    "start": null,
    "end": null
   },
   {
    "title": "공주 우금치 전적",
    "addr": "충청남도 공주시 금학동",
    "lat": 37.0000500157,
    "lng": 127.1119164418,
    "img": "http://tong.visitkorea.or.kr/cms/resource/21/3334021_image2_1.jpg",
    "start": null,
    "end": null
   }
  ],
  "foods": [
   {
    "title": "고마나루1999",
    "addr": "충청남도 공주시 백미고을길 5-8 (금성동)",
    "lat": 36.4650256418,
    "lng": 127.1227467571,
    "img": "http://tong.visitkorea.or.kr/cms/resource/81/3057481_image2_1.JPG",
    "start": null,
    "end": null
   },
   {
    "title": "고창애풍천장어",
    "addr": "충청남도 공주시 창벽로 234-1",
    "lat": 36.4508112728,
    "lng": 127.1606770704,
    "img": "http://tong.visitkorea.or.kr/cms/resource/16/2876316_image2_1.jpg",
    "start": null,
    "end": null
   },
   {
    "title": "곰골식당",
    "addr": "충청남도 공주시 봉황산1길 1-2",
    "lat": 36.4518298957,
    "lng": 127.1206250807,
    "img": "http://tong.visitkorea.or.kr/cms/resource/39/2736839_image2_1.jpg",
    "start": null,
    "end": null
   },
   {
    "title": "곰선생동태씨",
    "addr": "충청남도 공주시 무령로 466-3",
    "lat": 36.4674173959,
    "lng": 127.1432726278,
    "img": "http://tong.visitkorea.or.kr/cms/resource/18/2876718_image2_1.jpg",
    "start": null,
    "end": null
   },
   {
    "title": "공다방",
    "addr": "충청남도 공주시 백미고을길 5-3",
    "lat": 36.4651450786,
    "lng": 127.1230828345,
    "img": "http://tong.visitkorea.or.kr/cms/resource/46/2876746_image2_1.png",
    "start": null,
    "end": null
   }
  ],
  "stays": [
   {
    "title": "봉황재 한옥 게스트하우스",
    "addr": "충청남도 공주시 큰샘3길 8",
    "lat": 36.4508188891,
    "lng": 127.120030717,
    "img": "http://tong.visitkorea.or.kr/cms/resource/81/2707581_image2_1.jpeg",
    "start": null,
    "end": null
   },
   {
    "title": "호스텔정중동",
    "addr": "충청남도 공주시 웅진로 145-9 (중동)",
    "lat": 36.4530798041,
    "lng": 127.1235942252,
    "img": "http://tong.visitkorea.or.kr/cms/resource/39/3545039_image2_1.jpg",
    "start": null,
    "end": null
   },
   {
    "title": "공주공산성게스트 하우스",
    "addr": "충청남도 공주시 백미고을길 5-4",
    "lat": 36.4651700701,
    "lng": 127.1227634182,
    "img": "",
    "start": null,
    "end": null
   },
   {
    "title": "굿모닝 관광펜션",
    "addr": "충청남도 공주시 사곡면 단평길 245",
    "lat": 36.5306302273,
    "lng": 127.0216901749,
    "img": "",
    "start": null,
    "end": null
   },
   {
    "title": "담담",
    "addr": "충청남도 공주시 봉황로 86-8 (반죽동)",
    "lat": 36.453646376,
    "lng": 127.1218999174,
    "img": "",
    "start": null,
    "end": null
   },
   {
    "title": "청담",
    "addr": "충청남도 공주시 은행나무길 5 (반죽동)",
    "lat": 36.4558738758,
    "lng": 127.1206083067,
    "img": "",
    "start": null,
    "end": null
   }
  ],
  "festivals": [
   {
    "title": "2025 문화공간 어디쉐어 <공주 하숙동 1번지> 시즌2",
    "addr": "충청남도 공주시 당간지주길 21 (반죽동)",
    "lat": 36.4522271167,
    "lng": 127.1231998391,
    "img": "http://tong.visitkorea.or.kr/cms/resource/79/3524279_image2_1.png",
    "start": "20250919",
    "end": "20250920",
    "scope": "sigungu",
    "status": "annual"
   }
  ],
  "heritage_mapped": 98
 },
 {
  "region": "전라북도 익산시",
  "sido": "전북",
  "sigungu": "익산시",
  "theme": "문화유산형",
  "segment": "숨은매력지(문화유산형)",
  "composite": 1.4,
  "hidden_score": 2.29,
  "heritage": 107,
  "axes": {
   "visit": -0.9,
   "attract": 4.2,
   "connect": 0.8
  },
  "lat": 36.008595,
  "lng": 126.99877,
  "spots": [
   {
    "title": "고스락",
    "addr": "전북특별자치도 익산시 함열읍 익산대로 1424-14",
    "lat": 36.0459040975,
    "lng": 126.9606807544,
    "img": "http://tong.visitkorea.or.kr/cms/resource/35/3086435_image2_1.jpg",
    "start": null,
    "end": null
   },
   {
    "title": "공룡테마공원 (다이노 키즈월드)",
    "addr": "전북특별자치도 익산시 왕궁면 호반로 8",
    "lat": 35.9907045238,
    "lng": 127.102605645,
    "img": "http://tong.visitkorea.or.kr/cms/resource/09/3369909_image2_1.JPG",
    "start": null,
    "end": null
   },
   {
    "title": "금마저수지",
    "addr": "전북특별자치도 익산시 금마면 고도9길 41-64",
    "lat": 36.001824683,
    "lng": 127.0568399915,
    "img": "http://tong.visitkorea.or.kr/cms/resource/68/3360768_image2_1.JPG",
    "start": null,
    "end": null
   },
   {
    "title": "나바위 성당",
    "addr": "전북특별자치도 익산시 망성면 나바위1길 146",
    "lat": 36.1382803303,
    "lng": 126.999427637,
    "img": "http://tong.visitkorea.or.kr/cms/resource/37/2643537_image2_1.jpg",
    "start": null,
    "end": null
   },
   {
    "title": "남궁찬묘석상",
    "addr": "전북특별자치도 익산시 성당면 목사동길 48",
    "lat": 36.0908455865,
    "lng": 126.9259382367,
    "img": "http://tong.visitkorea.or.kr/cms/resource/69/3564069_image2_1.jpg",
    "start": null,
    "end": null
   },
   {
    "title": "남원사(익산)",
    "addr": "전북특별자치도 익산시 여산면 서촌1길 34-3",
    "lat": 36.0557273173,
    "lng": 127.0827695904,
    "img": "http://tong.visitkorea.or.kr/cms/resource/46/3564246_image2_1.jpg",
    "start": null,
    "end": null
   },
   {
    "title": "남중동 오층 석탑",
    "addr": "전북특별자치도 익산시 익산대로24길 8-5",
    "lat": 35.9454598536,
    "lng": 126.9521452572,
    "img": "http://tong.visitkorea.or.kr/cms/resource/35/3369935_image2_1.JPG",
    "start": null,
    "end": null
   },
   {
    "title": "달빛소리 수목원",
    "addr": "전북특별자치도 익산시 춘포면 천서길 149",
    "lat": 35.9398452252,
    "lng": 127.0330409637,
    "img": "http://tong.visitkorea.or.kr/cms/resource/66/3576166_image2_1.jpg",
    "start": null,
    "end": null
   }
  ],
  "foods": [
   {
    "title": "다가포가든",
    "addr": "전북특별자치도 익산시 현영길 40-28 (만석동)",
    "lat": 35.9641352294,
    "lng": 126.9363933977,
    "img": "http://tong.visitkorea.or.kr/cms/resource/78/2851278_image2_1.jpg",
    "start": null,
    "end": null
   },
   {
    "title": "뚜부카페",
    "addr": "전북특별자치도 익산시 금마면 고도9길 23",
    "lat": 35.9980946376,
    "lng": 127.0617285428,
    "img": "http://tong.visitkorea.or.kr/cms/resource/76/3580876_image2_1.jpg",
    "start": null,
    "end": null
   },
   {
    "title": "메이드인헤븐",
    "addr": "전북특별자치도 익산시 하나로 864-22",
    "lat": 35.9978460077,
    "lng": 126.9788637244,
    "img": "http://tong.visitkorea.or.kr/cms/resource/18/2850818_image2_1.jpg",
    "start": null,
    "end": null
   },
   {
    "title": "삼일식당",
    "addr": "전북특별자치도 익산시 중앙로 22-222",
    "lat": 35.9371107392,
    "lng": 126.9483152612,
    "img": "http://tong.visitkorea.or.kr/cms/resource/14/3580814_image2_1.jpg",
    "start": null,
    "end": null
   },
   {
    "title": "시장비빔밥",
    "addr": "전북특별자치도 익산시 황등7길 25 황등시장",
    "lat": 36.0059611671,
    "lng": 126.9452665117,
    "img": "http://tong.visitkorea.or.kr/cms/resource/86/2837886_image2_1.jpg",
    "start": null,
    "end": null
   }
  ],
  "stays": [
   {
    "title": "금마관",
    "addr": "전북특별자치도 익산시 금마면 고도8길 3",
    "lat": 35.9963447951,
    "lng": 127.059295472,
    "img": "http://tong.visitkorea.or.kr/cms/resource/67/2573367_image2_1.jpg",
    "start": null,
    "end": null
   },
   {
    "title": "익산유스호스텔",
    "addr": "전북특별자치도 익산시 마한로 11",
    "lat": 35.9658466444,
    "lng": 126.9653018835,
    "img": "http://tong.visitkorea.or.kr/cms/resource/20/3592120_image2_1.jpg",
    "start": null,
    "end": null
   },
   {
    "title": "미륵산자연학교",
    "addr": "전북특별자치도 익산시 삼기면 죽청길 46-60",
    "lat": 36.0322899906,
    "lng": 127.0187537023,
    "img": "",
    "start": null,
    "end": null
   },
   {
    "title": "함라한옥체험단지",
    "addr": "전북특별자치도 익산시 함라면 함라교동길 25",
    "lat": 36.0627735156,
    "lng": 126.9098737429,
    "img": "",
    "start": null,
    "end": null
   }
  ],
  "festivals": [
   {
    "title": "2025 홀로그램 엑스포 - HOLO WAVE",
    "addr": "전북특별자치도 익산시 익산대로 460 (신동)",
    "lat": 35.9670185276,
    "lng": 126.9533945826,
    "img": "http://tong.visitkorea.or.kr/cms/resource/96/3565396_image2_1.png",
    "start": "20251120",
    "end": "20251122",
    "scope": "sigungu",
    "status": "annual"
   },
   {
    "title": "보물찾기 축제 - 금괴를 찾아라 !",
    "addr": "전북특별자치도 익산시 인북로12길 28 (주현동)",
    "lat": 35.9335834631,
    "lng": 126.9541092806,
    "img": "http://tong.visitkorea.or.kr/cms/resource/91/3536391_image2_1.jpg",
    "start": "20251101",
    "end": "20251102",
    "scope": "sigungu",
    "status": "annual"
   },
   {
    "title": "익산천만송이 국화축제",
    "addr": "전북특별자치도 익산시 하나로 322 (어양동)",
    "lat": 35.9492655338,
    "lng": 126.9844672731,
    "img": "http://tong.visitkorea.or.kr/cms/resource/75/3542875_image2_1.jpg",
    "start": "20251024",
    "end": "20251102",
    "scope": "sigungu",
    "status": "annual"
   },
   {
    "title": "익산마한문화대전",
    "addr": "전북특별자치도 익산시 금마면 고도9길 41-14",
    "lat": 36.0006415547,
    "lng": 127.0609146595,
    "img": "http://tong.visitkorea.or.kr/cms/resource/13/3546713_image2_1.jpg",
    "start": "20251003",
    "end": "20251005",
    "scope": "sigungu",
    "status": "annual"
   },
   {
    "title": "NS푸드페스타",
    "addr": "전북특별자치도 익산시 함열읍 익산대로78길 137",
    "lat": 36.0314029894,
    "lng": 126.9615032843,
    "img": "http://tong.visitkorea.or.kr/cms/resource/21/3578421_image2_1.jpg",
    "start": "20250926",
    "end": "20250927",
    "scope": "sigungu",
    "status": "annual"
   }
  ],
  "heritage_mapped": 65
 },
 {
  "region": "경기도 여주시",
  "sido": "경기",
  "sigungu": "여주시",
  "theme": "문화유산형",
  "segment": "숨은매력지(문화유산형)",
  "composite": 1.54,
  "hidden_score": 2.24,
  "heritage": 75,
  "axes": {
   "visit": 3.3,
   "attract": 1.0,
   "connect": 0.3
  },
  "lat": 37.290353,
  "lng": 127.590944,
  "spots": [
   {
    "title": "가남체육공원",
    "addr": "경기도 여주시 가남읍 대명산길 98",
    "lat": 37.2017093544,
    "lng": 127.5349142281,
    "img": "http://tong.visitkorea.or.kr/cms/resource/71/2777971_image2_1.jpg",
    "start": null,
    "end": null
   },
   {
    "title": "강한사",
    "addr": "경기도 여주시 청심로 113 (하동)",
    "lat": 37.2991248935,
    "lng": 127.6331386778,
    "img": "http://tong.visitkorea.or.kr/cms/resource/15/3060415_image2_1.jpg",
    "start": null,
    "end": null
   },
   {
    "title": "금은모래강변공원",
    "addr": "경기도 여주시 강변유원지길 164 (연양동)",
    "lat": 37.2895100517,
    "lng": 127.6720298839,
    "img": "http://tong.visitkorea.or.kr/cms/resource/63/3540463_image2_1.jpg",
    "start": null,
    "end": null
   },
   {
    "title": "기천서원지",
    "addr": "경기도 여주시 금사면 뒷머리길 11",
    "lat": 37.3926482918,
    "lng": 127.5297120148,
    "img": "http://tong.visitkorea.or.kr/cms/resource/14/3040614_image2_1.jpg",
    "start": null,
    "end": null
   },
   {
    "title": "당남리섬",
    "addr": "경기도 여주시 대신면 천서리",
    "lat": 37.3947510587,
    "lng": 127.5424191369,
    "img": "http://tong.visitkorea.or.kr/cms/resource/61/3540461_image2_1.jpg",
    "start": null,
    "end": null
   },
   {
    "title": "당남지구공원",
    "addr": "경기도 여주시 대신면 여양로 1935-69",
    "lat": 37.3936374068,
    "lng": 127.5483019696,
    "img": "http://tong.visitkorea.or.kr/cms/resource/24/3587224_image2_1.jpg",
    "start": null,
    "end": null
   },
   {
    "title": "대법사(여주)",
    "addr": "경기도 여주시 가남읍 안금3길 3-43",
    "lat": 37.2285297562,
    "lng": 127.6048821432,
    "img": "http://tong.visitkorea.or.kr/cms/resource/10/3060410_image2_1.jpg",
    "start": null,
    "end": null
   },
   {
    "title": "루덴시아",
    "addr": "경기도 여주시 산북면 금품1로 177",
    "lat": 37.4014793559,
    "lng": 127.461481831,
    "img": "http://tong.visitkorea.or.kr/cms/resource/86/3038386_image2_1.jpg",
    "start": null,
    "end": null
   }
  ],
  "foods": [
   {
    "title": "가래울해장국",
    "addr": "경기도 여주시 점동면 가래울길 29",
    "lat": 37.2051837464,
    "lng": 127.6756069815,
    "img": "http://tong.visitkorea.or.kr/cms/resource/93/2768293_image2_1.jpg",
    "start": null,
    "end": null
   },
   {
    "title": "감성식탁",
    "addr": "경기도 여주시 칠산길 39 (상동)",
    "lat": 37.289109595,
    "lng": 127.6446101509,
    "img": "http://tong.visitkorea.or.kr/cms/resource/38/2781838_image2_1.jpeg",
    "start": null,
    "end": null
   },
   {
    "title": "강천 매운탕",
    "addr": "경기도 여주시 강천면 강천리길 85",
    "lat": 37.234747611,
    "lng": 127.7089503462,
    "img": "http://tong.visitkorea.or.kr/cms/resource/34/2863334_image2_1.jpg",
    "start": null,
    "end": null
   },
   {
    "title": "경기순대국",
    "addr": "경기도 여주시 가남읍 삼군2길 27",
    "lat": 37.2223157471,
    "lng": 127.5590309069,
    "img": "http://tong.visitkorea.or.kr/cms/resource/24/2845924_image2_1.jpeg",
    "start": null,
    "end": null
   },
   {
    "title": "국민해장국",
    "addr": "경기도 여주시 가남읍 가남로 94",
    "lat": 37.2218437285,
    "lng": 127.567196849,
    "img": "http://tong.visitkorea.or.kr/cms/resource/08/2862708_image2_1.jpg",
    "start": null,
    "end": null
   }
  ],
  "stays": [
   {
    "title": "썬밸리호텔",
    "addr": "경기도 여주시 강변유원지길 45 (연양동)",
    "lat": 37.2931427643,
    "lng": 127.6610696584,
    "img": "http://tong.visitkorea.or.kr/cms/resource/86/3562486_image2_1.jpg",
    "start": null,
    "end": null
   }
  ],
  "festivals": [
   {
    "title": "2025 한글날 문화행사",
    "addr": "경기도 여주시 세종대왕면 영릉로 269-10",
    "lat": 37.3048294176,
    "lng": 127.6128375714,
    "img": "http://tong.visitkorea.or.kr/cms/resource/27/3540327_image2_1.jpg",
    "start": "20251009",
    "end": "20251009",
    "scope": "sigungu",
    "status": "annual"
   },
   {
    "title": "북내 금당천 삼색별미축제",
    "addr": "경기도 여주시 북내면 당우리",
    "lat": 37.3277002492,
    "lng": 127.681122407,
    "img": "http://tong.visitkorea.or.kr/cms/resource/56/3568656_image2_1.jpg",
    "start": "20250926",
    "end": "20250927",
    "scope": "sigungu",
    "status": "annual"
   }
  ],
  "heritage_mapped": 54
 },
 {
  "region": "경상남도 진주시",
  "sido": "경남",
  "sigungu": "진주시",
  "theme": "문화유산형",
  "segment": "숨은매력지(문화유산형)",
  "composite": 0.81,
  "hidden_score": 2.16,
  "heritage": 274,
  "axes": {
   "visit": 1.8,
   "attract": 0.4,
   "connect": 0.3
  },
  "lat": 35.191639,
  "lng": 128.13394,
  "spots": [
   {
    "title": "가뫼골마을",
    "addr": "경상남도 진주시 명석면 관덕길 174",
    "lat": 35.258656593,
    "lng": 128.0324121006,
    "img": "http://tong.visitkorea.or.kr/cms/resource/69/3538169_image2_1.jpg",
    "start": null,
    "end": null
   },
   {
    "title": "가호서원",
    "addr": "경상남도 진주시 이반성면 용암길 59-2",
    "lat": 35.1664473205,
    "lng": 128.3325771223,
    "img": "http://tong.visitkorea.or.kr/cms/resource/23/3040823_image2_1.jpg",
    "start": null,
    "end": null
   },
   {
    "title": "경상남도수목원",
    "addr": "경상남도 진주시 이반성면 수목원로 386",
    "lat": 35.1627970884,
    "lng": 128.2967442443,
    "img": "http://tong.visitkorea.or.kr/cms/resource/56/3538856_image2_1.jpg",
    "start": null,
    "end": null
   },
   {
    "title": "광제서원",
    "addr": "경상남도 진주시 명석면 광제산로685번길 116",
    "lat": 35.275407461,
    "lng": 128.0310951072,
    "img": "http://tong.visitkorea.or.kr/cms/resource/50/3349350_image2_1.jpg",
    "start": null,
    "end": null
   },
   {
    "title": "금호못유원지",
    "addr": "경상남도 진주시 금산면 금산순환로587번길 10-6",
    "lat": 35.2144859553,
    "lng": 128.1543220165,
    "img": "http://tong.visitkorea.or.kr/cms/resource/83/3349383_image2_1.jpg",
    "start": null,
    "end": null
   },
   {
    "title": "금호지",
    "addr": "경상남도 진주시 금산면 금산순환로587번길",
    "lat": 35.2076617092,
    "lng": 128.15355282,
    "img": "http://tong.visitkorea.or.kr/cms/resource/60/3451260_image2_1.jpg",
    "start": null,
    "end": null
   },
   {
    "title": "남가람공원",
    "addr": "경상남도 진주시 강남로 320",
    "lat": 35.1872460687,
    "lng": 128.0821985047,
    "img": "http://tong.visitkorea.or.kr/cms/resource/41/2894541_image2_1.jpg",
    "start": null,
    "end": null
   },
   {
    "title": "남강댐 노을공원",
    "addr": "경상남도 진주시 내동면 삼계로 453",
    "lat": 35.1612758486,
    "lng": 128.0304287282,
    "img": "http://tong.visitkorea.or.kr/cms/resource/41/3377041_image2_1.JPG",
    "start": null,
    "end": null
   }
  ],
  "foods": [
   {
    "title": "그라운드헤븐",
    "addr": "경상남도 진주시 대신로 626-13",
    "lat": 35.2157211927,
    "lng": 128.1130728231,
    "img": "http://tong.visitkorea.or.kr/cms/resource/41/2833041_image2_1.png",
    "start": null,
    "end": null
   },
   {
    "title": "남매식당 ／ NMSD",
    "addr": "경상남도 진주시 영천강로119번길 27-47",
    "lat": 35.1725181495,
    "lng": 128.1373135059,
    "img": "http://tong.visitkorea.or.kr/cms/resource/73/2864773_image2_1.jpg",
    "start": null,
    "end": null
   },
   {
    "title": "라브리애",
    "addr": "경상남도 진주시 월아산로 1539-1",
    "lat": 35.1971658639,
    "lng": 128.1645965743,
    "img": "http://tong.visitkorea.or.kr/cms/resource/31/2864731_image2_1.JPG",
    "start": null,
    "end": null
   },
   {
    "title": "로스팅웨어",
    "addr": "경상남도 진주시 가호방아길 51-8",
    "lat": 35.1574195078,
    "lng": 128.1182655736,
    "img": "http://tong.visitkorea.or.kr/cms/resource/12/2843612_image2_1.JPG",
    "start": null,
    "end": null
   },
   {
    "title": "로터스 커피앤 베이커리",
    "addr": "경상남도 진주시 강주길 24",
    "lat": 35.1145044663,
    "lng": 128.0946354403,
    "img": "http://tong.visitkorea.or.kr/cms/resource/71/2833271_image2_1.JPG",
    "start": null,
    "end": null
   }
  ],
  "stays": [
   {
    "title": "골든비즈니스호텔",
    "addr": "경상남도 진주시 에나로 101 (충무공동)",
    "lat": 35.1778370506,
    "lng": 128.1403742084,
    "img": "http://tong.visitkorea.or.kr/cms/resource/30/3081230_image2_1.jpg",
    "start": null,
    "end": null
   },
   {
    "title": "골든튤립 호텔 남강",
    "addr": "경상남도 진주시 남강로673번길 16 골든튤립에센셜 남강",
    "lat": 35.1916150997,
    "lng": 128.0865896708,
    "img": "http://tong.visitkorea.or.kr/cms/resource/69/2813169_image2_1.jpg",
    "start": null,
    "end": null
   },
   {
    "title": "달강",
    "addr": "경상남도 진주시 대평면 호반로 405",
    "lat": 35.1596670017,
    "lng": 127.991212766,
    "img": "http://tong.visitkorea.or.kr/cms/resource/93/3575193_image2_1.jpg",
    "start": null,
    "end": null
   },
   {
    "title": "솜누스",
    "addr": "경상남도 진주시 논개길 53",
    "lat": 35.1909151926,
    "lng": 128.0873979517,
    "img": "http://tong.visitkorea.or.kr/cms/resource/33/3546833_image2_1.jpg",
    "start": null,
    "end": null
   },
   {
    "title": "언덕위에 하얀집",
    "addr": "경상남도 진주시 대평면 호반로 414-23",
    "lat": 35.1613168126,
    "lng": 127.9910016296,
    "img": "http://tong.visitkorea.or.kr/cms/resource/47/3587547_image2_1.jpg",
    "start": null,
    "end": null
   },
   {
    "title": "주식회사제이스퀘어호텔",
    "addr": "경상남도 진주시 솔밭로 107",
    "lat": 35.1787752354,
    "lng": 128.1067465759,
    "img": "http://tong.visitkorea.or.kr/cms/resource/18/2803218_image2_1.jpg",
    "start": null,
    "end": null
   }
  ],
  "festivals": [
   {
    "title": "진주의 수호자들 - 유등빛을 지켜라",
    "addr": "경상남도 진주시 남강로 626 (본성동)",
    "lat": 35.190531773,
    "lng": 128.080104157,
    "img": "http://tong.visitkorea.or.kr/cms/resource/88/3542288_image2_1.jpg",
    "start": "20251005",
    "end": "20251019",
    "scope": "sigungu",
    "status": "annual"
   },
   {
    "title": "2025 코리아드라마페스티벌",
    "addr": "경상남도 진주시 논개길 103 (옥봉동)",
    "lat": 35.1899681714,
    "lng": 128.0926947349,
    "img": "http://tong.visitkorea.or.kr/cms/resource/72/3536872_image2_1.jpg",
    "start": "20251004",
    "end": "20251019",
    "scope": "sigungu",
    "status": "annual"
   },
   {
    "title": "2025 진주전통공예비엔날레",
    "addr": "경상남도 진주시 진주대로879번길 18 (강남동)",
    "lat": 35.1785527282,
    "lng": 128.0892925564,
    "img": "http://tong.visitkorea.or.kr/cms/resource/60/3548860_image2_1.png",
    "start": "20251001",
    "end": "20251116",
    "scope": "sigungu",
    "status": "annual"
   },
   {
    "title": "프로젝트 유어사이드 in 진주",
    "addr": "경상남도 진주시 강남동",
    "lat": 35.1779388961,
    "lng": 128.0886204093,
    "img": "http://tong.visitkorea.or.kr/cms/resource/40/3523340_image2_1.png",
    "start": "20250905",
    "end": "20250907",
    "scope": "sigungu",
    "status": "annual"
   }
  ],
  "heritage_mapped": 121
 },
 {
  "region": "충청남도 부여군",
  "sido": "충남",
  "sigungu": "부여군",
  "theme": "문화유산형",
  "segment": "숨은매력지(문화유산형)",
  "composite": 1.02,
  "hidden_score": 2.09,
  "heritage": 163,
  "axes": {
   "visit": 2.7,
   "attract": 1.0,
   "connect": -0.7
  },
  "lat": 36.280142,
  "lng": 126.902045,
  "spots": [
   {
    "title": "가림상회",
    "addr": "충청남도 부여군 임천면 성흥로97번길 4-5",
    "lat": 36.1899003585,
    "lng": 126.8928691464,
    "img": "http://tong.visitkorea.or.kr/cms/resource/19/3305119_image2_1.jpg",
    "start": null,
    "end": null
   },
   {
    "title": "간곡서원",
    "addr": "충청남도 부여군 임천면 성흥로283번길 31-4",
    "lat": 36.1825403583,
    "lng": 126.90839295,
    "img": "http://tong.visitkorea.or.kr/cms/resource/69/3339469_image2_1.jpg",
    "start": null,
    "end": null
   },
   {
    "title": "거전마을",
    "addr": "충청남도 부여군 은산면 지천로525번길 7-14",
    "lat": 36.3597300019,
    "lng": 126.8403693657,
    "img": "http://tong.visitkorea.or.kr/cms/resource/41/3540241_image2_1.JPG",
    "start": null,
    "end": null
   },
   {
    "title": "고란약수",
    "addr": "충청남도 부여군 부여읍 부소로 31-5",
    "lat": 36.2927361764,
    "lng": 126.9138867671,
    "img": "http://tong.visitkorea.or.kr/cms/resource/71/3540271_image2_1.JPG",
    "start": null,
    "end": null
   },
   {
    "title": "구드래조각공원",
    "addr": "충청남도 부여군 부여읍 백강로 148",
    "lat": 36.2872339058,
    "lng": 126.9068264344,
    "img": "http://tong.visitkorea.or.kr/cms/resource/97/3568197_image2_1.jpg",
    "start": null,
    "end": null
   },
   {
    "title": "금강 문화관",
    "addr": "충청남도 부여군 부여읍 북포로 451",
    "lat": 36.317164399,
    "lng": 126.9405948347,
    "img": "http://tong.visitkorea.or.kr/cms/resource/55/3568155_image2_1.jpg",
    "start": null,
    "end": null
   },
   {
    "title": "낙화암",
    "addr": "충청남도 부여군 부여읍 쌍북리",
    "lat": 36.2920445455,
    "lng": 126.9114147845,
    "img": "http://tong.visitkorea.or.kr/cms/resource/72/3335172_image2_1.jpg",
    "start": null,
    "end": null
   },
   {
    "title": "대조사(부여)",
    "addr": "충청남도 부여군 임천면 성흥로197번길 112",
    "lat": 36.1907920635,
    "lng": 126.9009683972,
    "img": "http://tong.visitkorea.or.kr/cms/resource/70/3565170_image2_1.jpg",
    "start": null,
    "end": null
   }
  ],
  "foods": [
   {
    "title": "높은댕이",
    "addr": "충청남도 부여군 삼충로 325-34",
    "lat": 36.3113208683,
    "lng": 126.9546520624,
    "img": "http://tong.visitkorea.or.kr/cms/resource/72/2832872_image2_1.jpg",
    "start": null,
    "end": null
   },
   {
    "title": "루디꼬",
    "addr": "충청남도 부여군 성왕로 324",
    "lat": 36.2835318361,
    "lng": 126.9231584018,
    "img": "http://tong.visitkorea.or.kr/cms/resource/88/2832888_image2_1.jpg",
    "start": null,
    "end": null
   },
   {
    "title": "메밀꽃필무렵",
    "addr": "충청남도 부여군 북포로 98",
    "lat": 36.2911587376,
    "lng": 126.9230026581,
    "img": "http://tong.visitkorea.or.kr/cms/resource/75/2926975_image2_1.jpg",
    "start": null,
    "end": null
   },
   {
    "title": "무드빌리지",
    "addr": "충청남도 부여군 뒷개로27번길 10-1",
    "lat": 36.2929057858,
    "lng": 126.9245163652,
    "img": "http://tong.visitkorea.or.kr/cms/resource/36/3574436_image2_1.jpg",
    "start": null,
    "end": null
   },
   {
    "title": "백마가든",
    "addr": "충청남도 부여군 충절로 3711",
    "lat": 36.3507884175,
    "lng": 126.7859272694,
    "img": "http://tong.visitkorea.or.kr/cms/resource/17/2913417_image2_1.jpg",
    "start": null,
    "end": null
   }
  ],
  "stays": [
   {
    "title": "부여안방마님",
    "addr": "충청남도 부여군 규암면 흥수로590번길 17",
    "lat": 36.2655770389,
    "lng": 126.8484100237,
    "img": "http://tong.visitkorea.or.kr/cms/resource/04/2679904_image2_1.jpg",
    "start": null,
    "end": null
   },
   {
    "title": "달을품은한옥",
    "addr": "충청남도 부여군 부여읍 월함로 107-1",
    "lat": 36.2922198057,
    "lng": 126.9275244464,
    "img": "",
    "start": null,
    "end": null
   },
   {
    "title": "롯데리조트 부여",
    "addr": "충청남도 부여군 규암면 백제문로 400",
    "lat": 36.3039124464,
    "lng": 126.9007876454,
    "img": "",
    "start": null,
    "end": null
   },
   {
    "title": "서동선화한옥",
    "addr": "충청남도 부여군 부여읍 월함로 105-1",
    "lat": 36.2918754037,
    "lng": 126.9276911069,
    "img": "",
    "start": null,
    "end": null
   }
  ],
  "festivals": [
   {
    "title": "국가유산 미디어아트 부여 정림사지",
    "addr": "충청남도 부여군 부여읍 정림로 83",
    "lat": 36.279071057,
    "lng": 126.9128955516,
    "img": "http://tong.visitkorea.or.kr/cms/resource/27/3563827_image2_1.jpg",
    "start": "20251002",
    "end": "20251012",
    "scope": "sigungu",
    "status": "annual"
   }
  ],
  "heritage_mapped": 119
 },
 {
  "region": "충청남도 홍성군",
  "sido": "충남",
  "sigungu": "홍성군",
  "theme": "문화유산형",
  "segment": "숨은매력지(문화유산형)",
  "composite": 1.4,
  "hidden_score": 1.93,
  "heritage": 59,
  "axes": {
   "visit": 0.4,
   "attract": 3.6,
   "connect": 0.1
  },
  "lat": 36.545491,
  "lng": 126.594435,
  "spots": [
   {
    "title": "결성동헌",
    "addr": "충청남도 홍성군 결성면 홍남서로738번길 23",
    "lat": 36.5240393726,
    "lng": 126.5451110316,
    "img": "http://tong.visitkorea.or.kr/cms/resource/51/3357051_image2_1.jpg",
    "start": null,
    "end": null
   },
   {
    "title": "결성향교",
    "addr": "충청남도 홍성군 결성면 홍남서로707번길 21-8",
    "lat": 36.5289137789,
    "lng": 126.5431610786,
    "img": "http://tong.visitkorea.or.kr/cms/resource/75/3357075_image2_1.jpg",
    "start": null,
    "end": null
   },
   {
    "title": "광경사지 석불좌상",
    "addr": "충청남도 홍성군 홍성읍 내법길 81-23",
    "lat": 36.6141868795,
    "lng": 126.6795242974,
    "img": "http://tong.visitkorea.or.kr/cms/resource/12/3081012_image2_1.JPG",
    "start": null,
    "end": null
   },
   {
    "title": "광천생활체육공원",
    "addr": "충청남도 홍성군 광천읍 광천리",
    "lat": 36.5073484031,
    "lng": 126.6354866605,
    "img": "http://tong.visitkorea.or.kr/cms/resource/27/3065227_image2_1.jpg",
    "start": null,
    "end": null
   },
   {
    "title": "광천토굴새우젓단지",
    "addr": "충청남도 홍성군 광천읍 광천로 91",
    "lat": 36.4852533774,
    "lng": 126.6156112576,
    "img": "http://tong.visitkorea.or.kr/cms/resource/53/3034653_image2_1.jpg",
    "start": null,
    "end": null
   },
   {
    "title": "구절암(홍성)",
    "addr": "충청남도 홍성군 구항면 거북로218번길 163",
    "lat": 36.569193902,
    "lng": 126.6257414558,
    "img": "http://tong.visitkorea.or.kr/cms/resource/58/3079458_image2_1.jpg",
    "start": null,
    "end": null
   },
   {
    "title": "궁리포구",
    "addr": "충청남도 홍성군 서부면 궁리",
    "lat": 36.5884471203,
    "lng": 126.4572117089,
    "img": "http://tong.visitkorea.or.kr/cms/resource/79/3357079_image2_1.jpg",
    "start": null,
    "end": null
   },
   {
    "title": "그림같은수목원",
    "addr": "충청남도 홍성군 광천읍 충서로400번길 102-36",
    "lat": 36.5198135343,
    "lng": 126.6295285338,
    "img": "http://tong.visitkorea.or.kr/cms/resource/61/2770761_image2_1.jpg",
    "start": null,
    "end": null
   }
  ],
  "foods": [
   {
    "title": "결성칼국수",
    "addr": "충청남도 홍성군 구성남로 31",
    "lat": 36.527272385,
    "lng": 126.5480773458,
    "img": "http://tong.visitkorea.or.kr/cms/resource/66/2912366_image2_1.jpg",
    "start": null,
    "end": null
   },
   {
    "title": "광천원조어죽",
    "addr": "충청남도 홍성군 광천읍 광천로329번길 24",
    "lat": 36.5027209641,
    "lng": 126.6242933472,
    "img": "http://tong.visitkorea.or.kr/cms/resource/78/2784678_image2_1.jpg",
    "start": null,
    "end": null
   },
   {
    "title": "꽃동산횟집",
    "addr": "충청남도 홍성군 서부면 남당항로79번길 2-36",
    "lat": 36.5308569463,
    "lng": 126.4817887857,
    "img": "http://tong.visitkorea.or.kr/cms/resource/36/2767136_image2_1.jpg",
    "start": null,
    "end": null
   },
   {
    "title": "내당한우",
    "addr": "충청남도 홍성군 홍성읍 아문길52번길 6",
    "lat": 36.6003965259,
    "lng": 126.6637594194,
    "img": "http://tong.visitkorea.or.kr/cms/resource/33/2735133_image2_1.jpg",
    "start": null,
    "end": null
   },
   {
    "title": "내포해물촌",
    "addr": "충청남도 홍성군 조양로246번길 80",
    "lat": 36.5929448586,
    "lng": 126.6783583017,
    "img": "http://tong.visitkorea.or.kr/cms/resource/62/2850162_image2_1.jpg",
    "start": null,
    "end": null
   }
  ],
  "stays": [
   {
    "title": "결성향교",
    "addr": "충청남도 홍성군 결성면 홍남서로707번길 21-8",
    "lat": 36.5287943496,
    "lng": 126.5432499636,
    "img": "http://tong.visitkorea.or.kr/cms/resource/74/2568074_image2_1.JPG",
    "start": null,
    "end": null
   },
   {
    "title": "장충영각",
    "addr": "충청남도 홍성군 구항면 거북로 422-41",
    "lat": 36.572537726,
    "lng": 126.6120509347,
    "img": "",
    "start": null,
    "end": null
   }
  ],
  "festivals": [
   {
    "title": "홍성 백반 페스타",
    "addr": "충청남도 홍성군 광천읍 광천1길 22",
    "lat": 36.5018183007,
    "lng": 126.6249155367,
    "img": "http://tong.visitkorea.or.kr/cms/resource/96/3567096_image2_1.jpg",
    "start": "20251115",
    "end": "20251116",
    "scope": "sigungu",
    "status": "annual"
   },
   {
    "title": "홍성글로벌바비큐페스티벌",
    "addr": "충청남도 홍성군 홍성읍 아문길 20",
    "lat": 36.600246495,
    "lng": 126.6609319005,
    "img": "http://tong.visitkorea.or.kr/cms/resource/70/3544670_image2_1.jpg",
    "start": "20251030",
    "end": "20251102",
    "scope": "sigungu",
    "status": "annual"
   },
   {
    "title": "2025 충청남도 드론 페스타",
    "addr": "충청남도 홍성군 홍북읍 충남대로 21",
    "lat": 36.6575484446,
    "lng": 126.6730820546,
    "img": "http://tong.visitkorea.or.kr/cms/resource/38/3530138_image2_1.jpg",
    "start": "20250920",
    "end": "20250920",
    "scope": "sigungu",
    "status": "annual"
   }
  ],
  "heritage_mapped": 41
 },
 {
  "region": "경상북도 구미시",
  "sido": "경북",
  "sigungu": "구미시",
  "theme": "문화유산형",
  "segment": "숨은매력지(문화유산형)",
  "composite": 1.15,
  "hidden_score": 1.93,
  "heritage": 95,
  "axes": {
   "visit": 0.4,
   "attract": 2.5,
   "connect": 0.6
  },
  "lat": 36.159898,
  "lng": 128.349993,
  "spots": [
   {
    "title": "구미 낙성리 느티나무",
    "addr": "경상북도 구미시 해평면 낙성리 230-1",
    "lat": 36.1980594138,
    "lng": 128.3840388514,
    "img": "http://tong.visitkorea.or.kr/cms/resource/30/2605830_image2_1.jpg",
    "start": null,
    "end": null
   },
   {
    "title": "구미 선산향교",
    "addr": "경상북도 구미시 선산읍 교리2안길 24-35",
    "lat": 36.2555707508,
    "lng": 128.2992058715,
    "img": "http://tong.visitkorea.or.kr/cms/resource/55/3348855_image2_1.jpg",
    "start": null,
    "end": null
   },
   {
    "title": "구미 채미정",
    "addr": "경상북도 구미시 금오산로 366 (남통동)",
    "lat": 36.112531722,
    "lng": 128.3129780927,
    "img": "http://tong.visitkorea.or.kr/cms/resource/59/3566259_image2_1.jpg",
    "start": null,
    "end": null
   },
   {
    "title": "금오산성",
    "addr": "경상북도 구미시 남통동",
    "lat": 36.1025188973,
    "lng": 128.3089370629,
    "img": "http://tong.visitkorea.or.kr/cms/resource/87/3041887_image2_1.jpg",
    "start": null,
    "end": null
   },
   {
    "title": "금오산케이블카",
    "addr": "경상북도 구미시 금오산로 419",
    "lat": 36.108415417,
    "lng": 128.3071787206,
    "img": "http://tong.visitkorea.or.kr/cms/resource/42/3566342_image2_1.jpg",
    "start": null,
    "end": null
   },
   {
    "title": "낙동강",
    "addr": "경상북도 구미시 남구미로",
    "lat": 36.0838530046,
    "lng": 128.3868640183,
    "img": "http://tong.visitkorea.or.kr/cms/resource/14/3548914_image2_1.jpg",
    "start": null,
    "end": null
   },
   {
    "title": "낙봉서원",
    "addr": "경상북도 구미시 해평면 낙성1길 84-7",
    "lat": 36.2014229331,
    "lng": 128.3847331399,
    "img": "http://tong.visitkorea.or.kr/cms/resource/53/3402553_image2_1.jpg",
    "start": null,
    "end": null
   },
   {
    "title": "대둔사(구미)",
    "addr": "경상북도 구미시 옥성면 산촌옥관로 691-78",
    "lat": 36.3357827815,
    "lng": 128.2420253649,
    "img": "http://tong.visitkorea.or.kr/cms/resource/78/3526678_image2_1.jpg",
    "start": null,
    "end": null
   }
  ],
  "foods": [
   {
    "title": "동광알탕",
    "addr": "경상북도 구미시 1공단로7길 86-9",
    "lat": 36.1100109887,
    "lng": 128.3784556988,
    "img": "http://tong.visitkorea.or.kr/cms/resource/89/2831889_image2_1.jpg",
    "start": null,
    "end": null
   },
   {
    "title": "배키우동",
    "addr": "경상북도 구미시 금오산로18길 6-14 (원평동)",
    "lat": 36.1254611412,
    "lng": 128.3311316804,
    "img": "http://tong.visitkorea.or.kr/cms/resource/66/2766966_image2_1.jpg",
    "start": null,
    "end": null
   },
   {
    "title": "빠리맨션",
    "addr": "경상북도 구미시 금오산로20길 4-1",
    "lat": 36.1250111665,
    "lng": 128.3297345937,
    "img": "http://tong.visitkorea.or.kr/cms/resource/75/2840975_image2_1.jpg",
    "start": null,
    "end": null
   },
   {
    "title": "삐에노 스테이크 뷔페",
    "addr": "경상북도 구미시 산동읍 신당1로4길 5-6",
    "lat": 36.1549318256,
    "lng": 128.4296332456,
    "img": "http://tong.visitkorea.or.kr/cms/resource/55/2841155_image2_1.jpg",
    "start": null,
    "end": null
   },
   {
    "title": "산동장안식당",
    "addr": "경상북도 구미시 강동로 840",
    "lat": 36.1651033595,
    "lng": 128.4549890486,
    "img": "http://tong.visitkorea.or.kr/cms/resource/29/2832129_image2_1.jpg",
    "start": null,
    "end": null
   }
  ],
  "stays": [
   {
    "title": "구미센츄리호텔",
    "addr": "경상북도 구미시 3공단1로 296 (임수동)",
    "lat": 36.1086671428,
    "lng": 128.4026924803,
    "img": "http://tong.visitkorea.or.kr/cms/resource/63/3573663_image2_1.JPG",
    "start": null,
    "end": null
   },
   {
    "title": "라마다 바이 윈덤 구미 호텔",
    "addr": "경상북도 구미시 인동중앙로3길 41 라마다 구미 호텔",
    "lat": 36.109917289,
    "lng": 128.4183521711,
    "img": "http://tong.visitkorea.or.kr/cms/resource/03/2811903_image2_1.jpg",
    "start": null,
    "end": null
   },
   {
    "title": "신라불교초전지",
    "addr": "경상북도 구미시 도개면 도개다곡길 389-46",
    "lat": 36.2910706657,
    "lng": 128.3632519698,
    "img": "http://tong.visitkorea.or.kr/cms/resource/49/2679949_image2_1.jpg",
    "start": null,
    "end": null
   },
   {
    "title": "YOU & I (유앤아이)(구미 유앤아이펜션)",
    "addr": "경상북도 구미시 금오산상가길 21-5",
    "lat": 36.1108680611,
    "lng": 128.3150918404,
    "img": "http://tong.visitkorea.or.kr/cms/resource/28/2571128_image2_1.jpg",
    "start": null,
    "end": null
   }
  ],
  "festivals": [
   {
    "title": "구미산단 페스티벌",
    "addr": "경상북도 구미시 1공단로 18 (공단동)",
    "lat": 36.1018394432,
    "lng": 128.3647571396,
    "img": "http://tong.visitkorea.or.kr/cms/resource/99/3590399_image2_1.jpg",
    "start": "20251008",
    "end": "20251009",
    "scope": "sigungu",
    "status": "annual"
   }
  ],
  "heritage_mapped": 65
 },
 {
  "region": "경상남도 거창군",
  "sido": "경남",
  "sigungu": "거창군",
  "theme": "문화유산형",
  "segment": "숨은매력지(문화유산형)",
  "composite": 1.14,
  "hidden_score": 1.92,
  "heritage": 96,
  "axes": {
   "visit": 2.1,
   "attract": 0.4,
   "connect": 0.8
  },
  "lat": 35.727546,
  "lng": 127.878478,
  "spots": [
   {
    "title": "갈계숲",
    "addr": "경상남도 거창군 북상면",
    "lat": 35.7789272818,
    "lng": 127.8160256582,
    "img": "http://tong.visitkorea.or.kr/cms/resource/44/3335844_image2_1.jpg",
    "start": null,
    "end": null
   },
   {
    "title": "거열산성군립공원",
    "addr": "경상남도 거창군 거창읍 거안로 1173-47",
    "lat": 35.6928937045,
    "lng": 127.8786196518,
    "img": "http://tong.visitkorea.or.kr/cms/resource/44/3348744_image2_1.jpg",
    "start": null,
    "end": null
   },
   {
    "title": "거창 가섭암지 마애여래삼존입상",
    "addr": "경상남도 거창군 위천면 상천리",
    "lat": 35.7345485901,
    "lng": 127.7941371179,
    "img": "http://tong.visitkorea.or.kr/cms/resource/99/3570199_image2_1.JPG",
    "start": null,
    "end": null
   },
   {
    "title": "거창 갈계리 삼층석탑",
    "addr": "경상남도 거창군 북상면 갈계리",
    "lat": 35.7931506445,
    "lng": 127.8147003936,
    "img": "http://tong.visitkorea.or.kr/cms/resource/96/3372596_image2_1.jpg",
    "start": null,
    "end": null
   },
   {
    "title": "거창 갈천서당",
    "addr": "경상남도 거창군 북상면 송계로 767-34",
    "lat": 35.7808909491,
    "lng": 127.8160978214,
    "img": "http://tong.visitkorea.or.kr/cms/resource/28/3571128_image2_1.JPG",
    "start": null,
    "end": null
   },
   {
    "title": "거창 감악사지 승탑",
    "addr": "경상남도 거창군 신원면",
    "lat": 35.5905507092,
    "lng": 127.933350892,
    "img": "http://tong.visitkorea.or.kr/cms/resource/34/3372634_image2_1.JPG",
    "start": null,
    "end": null
   },
   {
    "title": "거창 강남사지 석조여래입상",
    "addr": "경상남도 거창군 위천면 상천리",
    "lat": 35.7403816619,
    "lng": 127.8165766434,
    "img": "http://tong.visitkorea.or.kr/cms/resource/49/3373949_image2_1.JPG",
    "start": null,
    "end": null
   },
   {
    "title": "거창 거기리 성황단",
    "addr": "경상남도 거창군 주상면 거기리",
    "lat": 35.7559265332,
    "lng": 127.9391237212,
    "img": "http://tong.visitkorea.or.kr/cms/resource/40/3340940_image2_1.jpg",
    "start": null,
    "end": null
   }
  ],
  "foods": [
   {
    "title": "가조가마솥육개장순두부",
    "addr": "경상남도 거창군 가조가야로 1129",
    "lat": 35.7105164331,
    "lng": 128.0184540475,
    "img": "http://tong.visitkorea.or.kr/cms/resource/22/2837522_image2_1.JPG",
    "start": null,
    "end": null
   },
   {
    "title": "거창허브빌리지",
    "addr": "경상남도 거창군 가조면 지산로 1242",
    "lat": 35.6883301231,
    "lng": 128.0221793172,
    "img": "http://tong.visitkorea.or.kr/cms/resource/76/3014576_image2_1.jpg",
    "start": null,
    "end": null
   },
   {
    "title": "마리반점",
    "addr": "경상남도 거창군 송계로 300",
    "lat": 35.7497864731,
    "lng": 127.8346442371,
    "img": "http://tong.visitkorea.or.kr/cms/resource/89/2841889_image2_1.JPG",
    "start": null,
    "end": null
   },
   {
    "title": "비룡",
    "addr": "경상남도 거창군 공수들6길 17",
    "lat": 35.6869448222,
    "lng": 127.9034787263,
    "img": "http://tong.visitkorea.or.kr/cms/resource/16/2841916_image2_1.JPG",
    "start": null,
    "end": null
   },
   {
    "title": "수승대 임정은가든",
    "addr": "경상남도 거창군 위천면 송계로 363",
    "lat": 35.7552497104,
    "lng": 127.8328220297,
    "img": "http://tong.visitkorea.or.kr/cms/resource/44/3563944_image2_1.jpg",
    "start": null,
    "end": null
   }
  ],
  "stays": [],
  "festivals": [
   {
    "title": "감악산 꽃별 여행",
    "addr": "경상남도 거창군 신원면 연수사길 452",
    "lat": 35.5896644164,
    "lng": 127.9175273118,
    "img": "http://tong.visitkorea.or.kr/cms/resource/19/3539719_image2_1.jpg",
    "start": "20250919",
    "end": "20251012",
    "scope": "sigungu",
    "status": "annual"
   }
  ],
  "heritage_mapped": 70
 },
 {
  "region": "경상남도 창녕군",
  "sido": "경남",
  "sigungu": "창녕군",
  "theme": "문화유산형",
  "segment": "숨은매력지(문화유산형)",
  "composite": 0.92,
  "hidden_score": 1.82,
  "heritage": 125,
  "axes": {
   "visit": 0.0,
   "attract": 1.8,
   "connect": 1.0
  },
  "lat": 35.508957,
  "lng": 128.507324,
  "spots": [
   {
    "title": "관룡사",
    "addr": "경상남도 창녕군 창녕읍 화왕산관룡사길 171",
    "lat": 35.5319601845,
    "lng": 128.5534645773,
    "img": "http://tong.visitkorea.or.kr/cms/resource/65/3375465_image2_1.JPG",
    "start": null,
    "end": null
   },
   {
    "title": "관산서당",
    "addr": "경상남도 창녕군 고암면 월미상월길 115",
    "lat": 35.5709107777,
    "lng": 128.5223079142,
    "img": "http://tong.visitkorea.or.kr/cms/resource/25/3375525_image2_1.JPG",
    "start": null,
    "end": null
   },
   {
    "title": "구니서당",
    "addr": "경상남도 창녕군 고암면 창밀로 506-30",
    "lat": 35.5802403282,
    "lng": 128.5249129861,
    "img": "http://tong.visitkorea.or.kr/cms/resource/32/3376132_image2_1.JPG",
    "start": null,
    "end": null
   },
   {
    "title": "금호재",
    "addr": "경상남도 창녕군 대합면 대동길 33",
    "lat": 35.6112050108,
    "lng": 128.4554710186,
    "img": "http://tong.visitkorea.or.kr/cms/resource/83/3376183_image2_1.JPG",
    "start": null,
    "end": null
   },
   {
    "title": "남지체육공원",
    "addr": "경상남도 창녕군 남지읍 남지리 835-25",
    "lat": 35.3847586113,
    "lng": 128.4715924261,
    "img": "http://tong.visitkorea.or.kr/cms/resource/03/3564603_image2_1.jpg",
    "start": null,
    "end": null
   },
   {
    "title": "놀러와외갓집(우리동네협동조합)",
    "addr": "경상남도 창녕군 서동4길 6",
    "lat": 35.3880333679,
    "lng": 128.4784778448,
    "img": "http://tong.visitkorea.or.kr/cms/resource/27/2995827_image2_1.jpg",
    "start": null,
    "end": null
   },
   {
    "title": "달창재(달창사랑 협동조합)",
    "addr": "경상남도 창녕군 곽천길 15-6",
    "lat": 35.6352889794,
    "lng": 128.4870814696,
    "img": "http://tong.visitkorea.or.kr/cms/resource/41/2995841_image2_1.jpg",
    "start": null,
    "end": null
   },
   {
    "title": "더 하리(더하리스토리 주식회사)",
    "addr": "경상남도 창녕군 화왕산로 170",
    "lat": 35.5313176837,
    "lng": 128.5037856221,
    "img": "http://tong.visitkorea.or.kr/cms/resource/84/2995484_image2_1.jpg",
    "start": null,
    "end": null
   }
  ],
  "foods": [
   {
    "title": "공원반점",
    "addr": "경상남도 창녕군 창한로 95",
    "lat": 35.6125245898,
    "lng": 128.4709946178,
    "img": "http://tong.visitkorea.or.kr/cms/resource/35/2844135_image2_1.JPG",
    "start": null,
    "end": null
   },
   {
    "title": "김숙녀시래기밥상",
    "addr": "경상남도 창녕군 영산면 온천로 63",
    "lat": 35.4487997363,
    "lng": 128.5329186466,
    "img": "http://tong.visitkorea.or.kr/cms/resource/06/2875806_image2_1.jpg",
    "start": null,
    "end": null
   },
   {
    "title": "남지 학계식육식당",
    "addr": "경상남도 창녕군 남지중앙로 107",
    "lat": 35.3923607073,
    "lng": 128.4811747137,
    "img": "http://tong.visitkorea.or.kr/cms/resource/12/2837712_image2_1.JPG",
    "start": null,
    "end": null
   },
   {
    "title": "노리",
    "addr": "경상남도 창녕군 노리2길 7-20",
    "lat": 35.3878248834,
    "lng": 128.6215458734,
    "img": "http://tong.visitkorea.or.kr/cms/resource/31/2837731_image2_1.JPG",
    "start": null,
    "end": null
   },
   {
    "title": "대중분식당",
    "addr": "경상남도 창녕군 창녕대로 27",
    "lat": 35.5412135655,
    "lng": 128.4914892095,
    "img": "http://tong.visitkorea.or.kr/cms/resource/41/2853841_image2_1.JPG",
    "start": null,
    "end": null
   }
  ],
  "stays": [
   {
    "title": "키즈스테이호텔 인 부곡",
    "addr": "경상남도 창녕군 온천2길 48",
    "lat": 35.4396184802,
    "lng": 128.5901305488,
    "img": "http://tong.visitkorea.or.kr/cms/resource/48/3349948_image2_1.jpg",
    "start": null,
    "end": null
   },
   {
    "title": "부곡 로얄관광호텔",
    "addr": "경상남도 창녕군 부곡면 온천중앙로 3",
    "lat": 35.4414154223,
    "lng": 128.5858614292,
    "img": "",
    "start": null,
    "end": null
   }
  ],
  "festivals": [
   {
    "title": "사천에어쇼",
    "addr": "경상남도 사천시 사천읍 정의리",
    "lat": 35.0911816485,
    "lng": 128.0699132182,
    "img": "http://tong.visitkorea.or.kr/cms/resource/49/3566649_image2_1.png",
    "start": "20261022",
    "end": "20261025",
    "scope": "sido",
    "status": "upcoming"
   },
   {
    "title": "창원산단 문화축제",
    "addr": "경상남도 창원시 성산구 외동반림로 9 (중앙동)",
    "lat": 35.2213639824,
    "lng": 128.6734819584,
    "img": "http://tong.visitkorea.or.kr/cms/resource/32/3562932_image2_1.png",
    "start": "20251108",
    "end": "20251109",
    "scope": "sido",
    "status": "annual"
   },
   {
    "title": "하동별맛축제",
    "addr": "경상남도 하동군 하동읍 비파리",
    "lat": 35.0594575822,
    "lng": 127.7625159968,
    "img": "http://tong.visitkorea.or.kr/cms/resource/08/3559708_image2_1.jpg",
    "start": "20251107",
    "end": "20251109",
    "scope": "sido",
    "status": "annual"
   },
   {
    "title": "김해분청도자기축제",
    "addr": "경상남도 김해시 진례면 분청로 17",
    "lat": 35.2517674455,
    "lng": 128.7459053654,
    "img": "http://tong.visitkorea.or.kr/cms/resource/49/3546549_image2_1.jpg",
    "start": "20251104",
    "end": "20251109",
    "scope": "sido",
    "status": "annual"
   },
   {
    "title": "대장경기록문화축제",
    "addr": "경상남도 합천군 가야면 가야산로 1160",
    "lat": 35.7673871185,
    "lng": 128.1365143052,
    "img": "http://tong.visitkorea.or.kr/cms/resource/75/3559875_image2_1.JPG",
    "start": "20251024",
    "end": "20251102",
    "scope": "sido",
    "status": "annual"
   }
  ],
  "heritage_mapped": 87
 },
 {
  "region": "제주특별자치도 서귀포시",
  "sido": "제주",
  "sigungu": "서귀포시",
  "theme": "문화유산형",
  "segment": "숨은매력지(문화유산형)",
  "composite": 0.7,
  "hidden_score": 1.73,
  "heritage": 162,
  "axes": {
   "visit": 1.7,
   "attract": -0.8,
   "connect": 1.3
  },
  "lat": 33.333204,
  "lng": 126.605405,
  "spots": [
   {
    "title": "가문이오름(감은이오름)",
    "addr": "제주특별자치도 서귀포시 표선면 가시리",
    "lat": 33.4018299117,
    "lng": 126.6876111209,
    "img": "http://tong.visitkorea.or.kr/cms/resource/92/3477392_image2_1.jpg",
    "start": null,
    "end": null
   },
   {
    "title": "가세오름",
    "addr": "제주특별자치도 서귀포시 표선면 녹산로 554",
    "lat": 33.3931758821,
    "lng": 126.7231832338,
    "img": "http://tong.visitkorea.or.kr/cms/resource/61/3477261_image2_1.jpg",
    "start": null,
    "end": null
   },
   {
    "title": "가시리국산화풍력발전단지",
    "addr": "제주특별자치도 서귀포시 표선면 녹산로 464-78",
    "lat": 33.3939370848,
    "lng": 126.7341100468,
    "img": "http://tong.visitkorea.or.kr/cms/resource/92/3026692_image2_1.jpg",
    "start": null,
    "end": null
   },
   {
    "title": "가시오름",
    "addr": "제주특별자치도 서귀포시 대정읍 하모이삼로21번길 1",
    "lat": 33.2236315617,
    "lng": 126.2500169782,
    "img": "http://tong.visitkorea.or.kr/cms/resource/13/3477513_image2_1.jpg",
    "start": null,
    "end": null
   },
   {
    "title": "각시바위오름",
    "addr": "제주특별자치도 서귀포시 호근동",
    "lat": 33.2777271543,
    "lng": 126.5259918298,
    "img": "http://tong.visitkorea.or.kr/cms/resource/64/3477364_image2_1.jpg",
    "start": null,
    "end": null
   },
   {
    "title": "갈마못(갈뫼못)",
    "addr": "제주특별자치도 서귀포시 표선면 성읍리",
    "lat": 33.3873529469,
    "lng": 126.8116979172,
    "img": "http://tong.visitkorea.or.kr/cms/resource/31/3477231_image2_1.jpg",
    "start": null,
    "end": null
   },
   {
    "title": "감낭오름",
    "addr": "제주특별자치도 서귀포시 안덕면 동광리",
    "lat": 33.3250274801,
    "lng": 126.3497088457,
    "img": "http://tong.visitkorea.or.kr/cms/resource/06/3477406_image2_1.jpg",
    "start": null,
    "end": null
   },
   {
    "title": "갑선이오름",
    "addr": "제주특별자치도 서귀포시 표선면 가시리",
    "lat": 33.3608276172,
    "lng": 126.7818122232,
    "img": "http://tong.visitkorea.or.kr/cms/resource/45/3523545_image2_1.jpg",
    "start": null,
    "end": null
   }
  ],
  "foods": [
   {
    "title": "가람돌솥밥",
    "addr": "제주특별자치도 서귀포시 중문관광로 332 (대포동)",
    "lat": 33.2496926417,
    "lng": 126.4313090015,
    "img": "http://tong.visitkorea.or.kr/cms/resource/47/2755047_image2_1.jpg",
    "start": null,
    "end": null
   },
   {
    "title": "가시식당",
    "addr": "제주특별자치도 서귀포시 표선면 가시로565번길 24",
    "lat": 33.3530172003,
    "lng": 126.7713633064,
    "img": "http://tong.visitkorea.or.kr/cms/resource/76/3389976_image2_1.jpg",
    "start": null,
    "end": null
   },
   {
    "title": "가시아방국수",
    "addr": "제주특별자치도 서귀포시 성산읍 섭지코지로 10",
    "lat": 33.4386573313,
    "lng": 126.9180930788,
    "img": "http://tong.visitkorea.or.kr/cms/resource/08/2800608_image2_1.jpg",
    "start": null,
    "end": null
   },
   {
    "title": "갈치왕",
    "addr": "제주특별자치도 서귀포시 일주서로 1146 (상예동)",
    "lat": 33.2646820142,
    "lng": 126.3907705168,
    "img": "http://tong.visitkorea.or.kr/cms/resource/03/2783703_image2_1.jpg",
    "start": null,
    "end": null
   },
   {
    "title": "감따남",
    "addr": "제주특별자치도 서귀포시 월산로 16",
    "lat": 33.2620894948,
    "lng": 126.4946032358,
    "img": "http://tong.visitkorea.or.kr/cms/resource/54/2854454_image2_1.jpg",
    "start": null,
    "end": null
   }
  ],
  "stays": [
   {
    "title": "노을담은뜨락",
    "addr": "제주특별자치도 서귀포시 대정읍 노을해안로 416",
    "lat": 33.2562936895,
    "lng": 126.1903769911,
    "img": "http://tong.visitkorea.or.kr/cms/resource/64/3562864_image2_1.jpg",
    "start": null,
    "end": null
   },
   {
    "title": "롯데호텔 제주",
    "addr": "제주특별자치도 서귀포시 중문관광로72번길 35",
    "lat": 33.2487146442,
    "lng": 126.4105247144,
    "img": "http://tong.visitkorea.or.kr/cms/resource/46/3538946_image2_1.jpg",
    "start": null,
    "end": null
   },
   {
    "title": "바다에누워 펜션",
    "addr": "제주특별자치도 서귀포시 남원읍 위미해안로 60",
    "lat": 33.2696884696,
    "lng": 126.6578361411,
    "img": "http://tong.visitkorea.or.kr/cms/resource/97/3477297_image2_1.jpg",
    "start": null,
    "end": null
   },
   {
    "title": "발트하우스",
    "addr": "제주특별자치도 서귀포시 표선면 번영로 3361-26",
    "lat": 33.3491324273,
    "lng": 126.8279307185,
    "img": "http://tong.visitkorea.or.kr/cms/resource/58/3082058_image2_1.jpg",
    "start": null,
    "end": null
   },
   {
    "title": "보물섬펜션",
    "addr": "제주특별자치도 서귀포시 성산읍 한도로242번길 10-11",
    "lat": 33.4664517038,
    "lng": 126.931705148,
    "img": "http://tong.visitkorea.or.kr/cms/resource/71/3477371_image2_1.jpg",
    "start": null,
    "end": null
   },
   {
    "title": "서귀포 귤림성",
    "addr": "제주특별자치도 서귀포시 일주동로 8941 (호근동)",
    "lat": 33.2503192271,
    "lng": 126.5360193536,
    "img": "http://tong.visitkorea.or.kr/cms/resource/45/3569245_image2_1.jpg",
    "start": null,
    "end": null
   }
  ],
  "festivals": [
   {
    "title": "원도심 야간여행 ‘섬夜시즌’ 운영",
    "addr": "제주특별자치도 서귀포시 칠십리로 120-12 (서귀동)",
    "lat": 33.241942872,
    "lng": 126.5675084795,
    "img": "http://tong.visitkorea.or.kr/cms/resource/00/3554700_image2_1.jpg",
    "start": "20251101",
    "end": "20251102",
    "scope": "sigungu",
    "status": "annual"
   },
   {
    "title": "문화의 달 행사",
    "addr": "제주특별자치도 서귀포시 남성중로 2-9 (서홍동)",
    "lat": 33.2438675382,
    "lng": 126.5598424335,
    "img": "http://tong.visitkorea.or.kr/cms/resource/69/3562069_image2_1.jpg",
    "start": "20251017",
    "end": "20251019",
    "scope": "sigungu",
    "status": "annual"
   },
   {
    "title": "쇠소깍축제",
    "addr": "제주특별자치도 서귀포시 쇠소깍로 151-1 (하효동)",
    "lat": 33.2505344492,
    "lng": 126.6215230516,
    "img": "http://tong.visitkorea.or.kr/cms/resource/80/3358380_image2_1.jpg",
    "start": "20250920",
    "end": "20250921",
    "scope": "sigungu",
    "status": "annual"
   },
   {
    "title": "서귀포은갈치축제",
    "addr": "제주특별자치도 서귀포시 칠십리로72번길 18 (서귀동)",
    "lat": 33.2403346868,
    "lng": 126.5656503433,
    "img": "http://tong.visitkorea.or.kr/cms/resource/68/3520768_image2_1.JPG",
    "start": "20250912",
    "end": "20250914",
    "scope": "sigungu",
    "status": "annual"
   },
   {
    "title": "2025 제주식품대전 with 맥주축제",
    "addr": "제주특별자치도 서귀포시 중문관광로 93 (색달동)",
    "lat": 33.2520782258,
    "lng": 126.4145798438,
    "img": "http://tong.visitkorea.or.kr/cms/resource/92/3525092_image2_1.jpg",
    "start": "20250905",
    "end": "20250907",
    "scope": "sigungu",
    "status": "annual"
   }
  ],
  "heritage_mapped": 130
 },
 {
  "region": "충청남도 논산시",
  "sido": "충남",
  "sigungu": "논산시",
  "theme": "문화유산형",
  "segment": "숨은매력지(문화유산형)",
  "composite": 0.69,
  "hidden_score": 1.51,
  "heritage": 113,
  "axes": {
   "visit": -0.5,
   "attract": 2.8,
   "connect": -0.3
  },
  "lat": 36.176905,
  "lng": 127.06659,
  "spots": [
   {
    "title": "강경 구 연수당 건재 약방",
    "addr": "충청남도 논산시 강경읍 옥녀봉로24번길 12-1",
    "lat": 36.162022392,
    "lng": 127.0184336426,
    "img": "http://tong.visitkorea.or.kr/cms/resource/52/3339052_image2_1.jpg",
    "start": null,
    "end": null
   },
   {
    "title": "강경 옥녀봉",
    "addr": "충청남도 논산시 강경읍 북옥리",
    "lat": 36.1649080602,
    "lng": 127.0119397028,
    "img": "http://tong.visitkorea.or.kr/cms/resource/46/3577146_image2_1.jpg",
    "start": null,
    "end": null
   },
   {
    "title": "강경 중앙초등학교 강당",
    "addr": "충청남도 논산시 강경읍 옥녀봉로 8",
    "lat": 36.1602309428,
    "lng": 127.0191725131,
    "img": "http://tong.visitkorea.or.kr/cms/resource/69/3339069_image2_1.jpg",
    "start": null,
    "end": null
   },
   {
    "title": "강경구락부",
    "addr": "충청남도 논산시 강경읍 계백로167번길 46-11",
    "lat": 36.1618473607,
    "lng": 127.0155005764,
    "img": "http://tong.visitkorea.or.kr/cms/resource/34/3581734_image2_1.jpg",
    "start": null,
    "end": null
   },
   {
    "title": "강경근대거리",
    "addr": "충청남도 논산시 강경읍 옥녀봉로 30-5",
    "lat": 36.161772411,
    "lng": 127.0178753661,
    "img": "http://tong.visitkorea.or.kr/cms/resource/63/3577163_image2_1.jpg",
    "start": null,
    "end": null
   },
   {
    "title": "강경미내다리",
    "addr": "충청남도 논산시 채운면 삼거리",
    "lat": 36.152857008,
    "lng": 127.031949343,
    "img": "http://tong.visitkorea.or.kr/cms/resource/16/3577116_image2_1.jpg",
    "start": null,
    "end": null
   },
   {
    "title": "강경역사문화안내소(구 강경노동조합)",
    "addr": "충청남도 논산시 강경읍 옥녀봉로27번길 30-5",
    "lat": 36.1610252177,
    "lng": 127.0146367865,
    "img": "http://tong.visitkorea.or.kr/cms/resource/43/3339243_image2_1.jpg",
    "start": null,
    "end": null
   },
   {
    "title": "개태사(논산)",
    "addr": "충청남도 논산시 연산면 계백로 2614-11",
    "lat": 36.2407281973,
    "lng": 127.2293710155,
    "img": "http://tong.visitkorea.or.kr/cms/resource/77/3050177_image2_1.JPG",
    "start": null,
    "end": null
   }
  ],
  "foods": [
   {
    "title": "강경해물칼국수",
    "addr": "충청남도 논산시 강경읍 계백로147번길 7",
    "lat": 36.157520077,
    "lng": 127.0154423627,
    "img": "http://tong.visitkorea.or.kr/cms/resource/82/2747882_image2_1.jpg",
    "start": null,
    "end": null
   },
   {
    "title": "강짬뽕",
    "addr": "충청남도 논산시 계백로 1660-8",
    "lat": 36.2118385765,
    "lng": 127.1578392952,
    "img": "http://tong.visitkorea.or.kr/cms/resource/99/2834499_image2_1.jpg",
    "start": null,
    "end": null
   },
   {
    "title": "김재성두부촌",
    "addr": "충청남도 논산시 부창로 76",
    "lat": 36.1957058328,
    "lng": 127.0860989186,
    "img": "http://tong.visitkorea.or.kr/cms/resource/12/3050212_image2_1.JPG",
    "start": null,
    "end": null
   },
   {
    "title": "레이크힐 제빵소",
    "addr": "충청남도 논산시 탑정로 872",
    "lat": 36.1772369722,
    "lng": 127.1576457903,
    "img": "http://tong.visitkorea.or.kr/cms/resource/18/2834518_image2_1.jpg",
    "start": null,
    "end": null
   },
   {
    "title": "민스시",
    "addr": "충청남도 논산시 시민로307번길 17 동신아파트",
    "lat": 36.1920757563,
    "lng": 127.0897681316,
    "img": "http://tong.visitkorea.or.kr/cms/resource/51/2913851_image2_1.jpg",
    "start": null,
    "end": null
   }
  ],
  "stays": [
   {
    "title": "논산 명재고택",
    "addr": "충청남도 논산시 노성면 노성산성길 50",
    "lat": 36.2818689912,
    "lng": 127.1312092519,
    "img": "http://tong.visitkorea.or.kr/cms/resource/55/3036955_image2_1.jpg",
    "start": null,
    "end": null
   },
   {
    "title": "잉스힐",
    "addr": "충청남도 논산시 벌곡면 수락계곡2길 63-3",
    "lat": 36.1554891993,
    "lng": 127.3012390999,
    "img": "http://tong.visitkorea.or.kr/cms/resource/41/3569341_image2_1.JPG",
    "start": null,
    "end": null
   },
   {
    "title": "논산 백일헌 종택",
    "addr": "충청남도 논산시 상월면 주곡길 45",
    "lat": 36.2791002222,
    "lng": 127.1516797155,
    "img": "",
    "start": null,
    "end": null
   },
   {
    "title": "논산문화관광재단(논산한옥마을)",
    "addr": "충청남도 논산시 시민로 270 (내동)",
    "lat": 36.1909981956,
    "lng": 127.0951593442,
    "img": "",
    "start": null,
    "end": null
   }
  ],
  "festivals": [
   {
    "title": "논산양촌곶감축제",
    "addr": "충청남도 논산시 양촌면 양촌리",
    "lat": 36.129182914,
    "lng": 127.24692243,
    "img": "http://tong.visitkorea.or.kr/cms/resource/87/3574987_image2_1.JPG",
    "start": "20251212",
    "end": "20251214",
    "scope": "sigungu",
    "status": "annual"
   },
   {
    "title": "강경젓갈축제",
    "addr": "충청남도 논산시 강경읍 금백로 45",
    "lat": 36.1575977477,
    "lng": 127.0098123087,
    "img": "http://tong.visitkorea.or.kr/cms/resource/99/3538099_image2_1.jpg",
    "start": "20251023",
    "end": "20251026",
    "scope": "sigungu",
    "status": "annual"
   },
   {
    "title": "한국유교문화축전",
    "addr": "충청남도 논산시 노성면 종학길 10",
    "lat": 36.2884982085,
    "lng": 127.0981370354,
    "img": "http://tong.visitkorea.or.kr/cms/resource/41/3530741_image2_1.jpg",
    "start": "20250912",
    "end": "20250914",
    "scope": "sigungu",
    "status": "annual"
   }
  ],
  "heritage_mapped": 91
 }
]